longitude,latitude,name,address
15.006722,56.20525,Åryd - Rastplats,Pris: 0.00 SEK - Inlagt 2006-07-28 | Kassettömning WC HCP Sopor | 
14.885,56.158333,Väggahamnen - Ställplats,Pris: 200.00 SEK - Inlagt 2024-06-14 | El Vatten Kassettömning WC Dusch Sopor | Nära vatten Båthamn
15.595814,56.105642,Finskan - Parkering,Pris: Saknas |  | Nära vatten
16.039098,56.321526,Brömsebro - Friplats,Pris: 0.00 SEK - Inlagt 2007-12-09 |  | Sevärdhet Lugnt och Avskilt
15.831389,56.124167,Steneryds Lövängar - Parkering,Pris: 0.00 SEK - Inlagt 2021-06-17 | WC | Sevärdhet
15.83043,56.11901,Hästhallen - Parkering,Pris: 0.00 SEK - Inlagt 2021-06-17 |  | Sevärdhet
15.862761,56.163017,Färskesjön - Parkering,Pris: 0.00 SEK - Inlagt 2021-06-17 |  | Nära vatten Badplats
15.713872,56.250241,Lindwallska Sjön - Parkering,Pris: Saknas | WC Sopor | Fiskeplats
15.748889,56.141389,Möcklö - Friplats,Pris: 0.00 SEK - Inlagt 2011-08-21 |  | Badplats Fiskeplats
15.686111,56.116111,Bredaviks Brygga - Parkering,Pris: 0.00 SEK - Inlagt 2011-08-21 |  | Nära vatten Badplats
15.72521,56.183262,Torstäva - Rastplats,Pris: 0.00 SEK - Inlagt 2016-07-19 | Kassettömning WC HCP Sopor | 
15.597361,56.474778,Fur - Rastplats,Pris: 0.00 SEK - Inlagt 2006-07-28 | WC HCP Sopor | 
16.033623,56.321755,Bröms - Rastplats,Pris: 0.00 SEK - Inlagt 2016-07-19 | Kassettömning WC HCP Sopor | Sevärdhet
15.594167,56.17,Argongatan - Tömningsplats,Pris: 0.00 SEK - Inlagt 2014-11-14 | Vatten Kassettömning Markbrunn | 
15.478083,56.1025,Hasslö Stugby - Ställplats,Pris: 225.00 SEK - Inlagt 2023-10-28 | El Vatten WC Dusch Sopor | Badplats Fiskeplats Båthamn
15.543333,56.11,Aspö Folkets Hus - Ställplats,Pris: 200.00 SEK - Inlagt 2025-06-24 | El WC HCP Dusch | Lugnt och Avskilt
15.819481,56.102845,Gissleviks Camping - Campingplats,Pris: 140.00 SEK - Inlagt 2021-06-23 | El Vatten Kassettömning Markbrunn WC Dusch Sopor Tvättstuga | Nära vatten Badplats Naturnära
15.742083,56.137194,Brofästet Senoren - Ställplats,Pris: 220.00 SEK - Inlagt 2023-08-04 | El Vatten Kassettömning WC HCP Sopor | Nära vatten Badplats Restaurang Eventcenter
15.594167,56.165833,Karlskrona Stadsmarina - Ställplats,Pris: 300.00 SEK - Inlagt 2024-05-19 | El Vatten Kassettömning WC HCP Dusch Sopor Tvättstuga | Nära vatten Centrumnära Sevärdhet Båthamn
15.85572,56.09336,Sandhamn Småbåtshamn - Ställplats,Pris: 220.00 SEK - Inlagt 2025-06-23 | El Vatten Kassettömning WC Dusch WiFi Tvättstuga | Nära vatten Badplats Båthamn Restaurang
14.530278,56.271111,Idrottshallen - Parkering,Pris: 0.00 SEK - Inlagt 2012-09-11 |  | Centrumnära Eventcenter
14.5925,56.3525,Södersjön Ställplats - Ställplats,Pris: 0.00 SEK - Inlagt 2025-06-17 | WC | Badplats
14.440483,56.233392,Raslången - Friplats,Pris: 0.00 SEK - Inlagt 2005-04-12 |  | Lugnt och Avskilt
14.520029,56.445588,Södra Grytsjön - Friplats,Pris: 0.00 SEK - Inlagt 2022-07-05 |  | Fiskeplats
15.450528,56.151861,Tjuraviken - Parkering,Pris: 0.00 SEK - Inlagt 2020-06-21 | HCP TC Sopor | Nära vatten Badplats Fiskeplats Lugnt och Avskilt Naturreservat
15.213972,56.220472,Galtsjön Södra - Rastplats,Pris: 0.00 SEK - Inlagt 2016-06-28 | Kassettömning WC HCP Sopor | Restaurang Tankställe
15.424928,56.198469,Förkärla - Rastplats,Pris: 0.00 SEK - Inlagt 2016-07-19 | Kassettömning WC HCP Sopor | 
22.71307,66.65189,Jockfalls Camping - Campingplats,Pris: 300.00 SEK - Inlagt 2022-05-02 | El Vatten Kassettömning Markbrunn WC HCP Dusch Sopor Tvättstuga | Nära vatten Badplats Fiskeplats Naturnära Restaurang
15.303056,56.174167,Östra Piren Marinan - Ställplats,Pris: 250.00 SEK - Inlagt 2025-04-25 | El Kassettömning WC HCP Dusch Sopor | Nära vatten
15.294306,56.189806,Ronneby Golfklubb - Ställplats,Pris: 200.00 SEK - Inlagt 2024-02-18 | El Vatten Kassettömning Markbrunn WC Dusch | Golfbana
14.678056,56.1225,Havsbadet Norje - Parkering,Pris: 0.00 SEK - Inlagt 2021-06-10 |  | Nära vatten Båthamn
14.57125,56.063917,Sölvesborg - Rastplats,Pris: 0.00 SEK - Inlagt 2006-07-28 | Kassettömning WC HCP Sopor | 
14.648889,55.999722,Torsö Hamn - Ställplats,Pris: 200.00 SEK - Inlagt 2024-06-03 | El Vatten WC Dusch | Nära vatten Badplats Fiskeplats Lugnt och Avskilt
14.700674,56.013276,Hälleviks Hamn - Ställplats,Pris: 190.00 SEK - Inlagt 2021-07-03 | El Vatten Kassettömning Markbrunn WC Dusch WiFi Sopor | Nära vatten Båthamn Eventcenter
14.737237,56.00332,Ställplats Nogersunds Hamn - Ställplats,Pris: 300.00 SEK - Inlagt 2026-01-31 | El Vatten Markbrunn WC HCP Dusch WiFi Sopor Tvättstuga | Båthamn Restaurang
14.757778,56.048889,Krokås Hamn - Ställplats,Pris: 180.00 SEK - Inlagt 2025-05-21 | El Vatten WC | Nära vatten Båthamn
14.765556,56.041667,Hörviks Marina - Ställplats,Pris: 200.00 SEK - Inlagt 2023-06-04 | El Vatten Kassettömning Markbrunn WC Dusch | Nära vatten Badplats Båthamn
16.558333,60.316667,Hyttdammen Grönsinka - Parkering,Pris: Saknas |  | Fiskeplats
16.672778,60.193889,Tyttbo Forsar - Friplats,Pris: 0.00 SEK - Inlagt 2023-06-10 | TC Sopor | Fiskeplats Naturreservat
16.200194,60.152111,Dalahästen - Rastplats,Pris: 0.00 SEK - Inlagt 2015-12-22 | WC HCP Sopor | Restaurang Tankställe
14.118874,61.114664,Ladutimmernäs - Friplats,Pris: 0.00 SEK - Inlagt 2017-08-29 |  | Naturnära
15.460346,60.471948,Gylle - Rastplats,Pris: 0.00 SEK - Inlagt 2018-09-23 | Sopor | Restaurang Tankställe
15.315194,60.53,Gagnbro - Rastplats,Pris: 0.00 SEK - Inlagt 2016-07-15 | WC HCP Sopor | 
15.281,60.30025,Långsjön - Rastplats,Pris: 0.00 SEK - Inlagt 2024-08-03 | Kassettömning WC HCP Sopor | Restaurang
15.2695,60.54925,Duvnäs - Rastplats,Pris: 0.00 SEK - Inlagt 2009-12-07 | Sopor | 
15.41433,60.48,Biltema Borlänge - Ställplats,Pris: 0.00 SEK - Inlagt 2021-04-30 | WC Sopor | Köpcentrum
15.697722,60.925944,Nyfäbon - Parkering,Pris: 0.00 SEK - Inlagt 2010-08-12 | Sopor | Nära vatten Fiskeplats
15.726722,60.591,Hosjön - Rastplats,Pris: 0.00 SEK - Inlagt 2005-12-28 | Sopor | 
15.751167,60.859472,Tängerdalens Camping och Café - Ställplats,Pris: 300.00 SEK - Inlagt 2025-07-01 | El Vatten Kassettömning Markbrunn WC Dusch Sopor Tvättstuga | Nära vatten Badplats Fiskeplats Naturnära
15.615,60.602222,Ställplats Falun - Ställplats,Pris: 195.00 SEK - Inlagt 2021-10-09 | Vatten WC Dusch Sopor | Sevärdhet
16.244722,60.711111,Lumsheden Camping - Campingplats,Pris: 100.00 SEK - Inlagt 2022-06-29 | El Vatten Kassettömning Markbrunn WC Sopor | Badplats Fiskeplats
14.774444,60.479889,Stora Vägen - Rastplats,Pris: Saknas | TC | 
15.131515,60.5526,Älvudden - Parkering,Pris: 0.00 SEK - Inlagt 2021-02-05 | TC | Naturnära
14.799444,60.507778,Kyrkälvsbron - Parkering,Pris: Saknas |  | Sevärdhet
14.676917,60.466639,Fänforsen - Rastplats,Pris: 0.00 SEK - Inlagt 2006-11-28 | WC HCP Sopor | Nära vatten Restaurang
15.13869,60.55975,Djurås - Rastplats,Pris: 0.00 SEK - Inlagt 2006-12-01 | WC HCP Sopor | Restaurang Tankställe
15.0625,60.533889,Ratt o Roder Stugby - Ställplats,Pris: 180.00 SEK - Inlagt 2024-04-07 | El Vatten WC Dusch WiFi Sopor | Nära vatten Fiskeplats Golfbana
16.070556,60.459444,Långshyttans Älgpark - Ställplats,Pris: 100.00 SEK - Inlagt 2023-06-16 | TC Sopor | Nära vatten Badplats Sevärdhet Eventcenter
16.03717,60.453724,Holmgatan Långshyttan - Ställplats,Pris: 0.00 SEK - Inlagt 2021-09-11 | Sopor | Centrumnära Badplats Fiskeplats
15.952778,60.323333,Viggen - Rastplats,Pris: 0.00 SEK - Inlagt 2019-10-25 | Kassettömning WC HCP Sopor | Nära vatten
16.167222,60.370278,Kloster - Ställplats,Pris: 160.00 SEK - Inlagt 2021-04-01 | El Vatten WC Sopor | Badplats Fiskeplats Sevärdhet
15.973333,60.292222,Folkets Park Hedemora - Ställplats,Pris: 200.00 SEK - Inlagt 2023-05-26 | El Vatten WC Dusch WiFi | Centrumnära
14.926256,60.676309,Kråkbodarna - Parkering,Pris: 0.00 SEK - Inlagt 2011-07-12 |  | Nära vatten
14.992716,60.730846,Kulturhusparkeringen - Parkering,Pris: 0.00 SEK - Inlagt 2021-01-12 |  | Centrumnära Sevärdhet
14.934444,60.763056,Siljansnäs - Rastplats,Pris: 0.00 SEK - Inlagt 2005-03-12 | WC Sopor | Nära vatten
15.047722,60.818083,Tällbergsporten - Rastplats,Pris: 0.00 SEK - Inlagt 2005-12-28 | WC HCP Sopor | Lugnt och Avskilt
15.316139,60.773694,Rällsjön - Rastplats,Pris: 0.00 SEK - Inlagt 2020-08-31 | Kassettömning WC HCP Sopor | Nära vatten
15.034168,60.712515,Leksand - Rastplats,Pris: 0.00 SEK - Inlagt 2020-09-06 | Vatten Kassettömning Markbrunn WC HCP Sopor | Sevärdhet
15.290028,60.712944,Tidstrandsvägen - Parkering,Pris: Saknas |  | 
15.192839,60.151111,Sporthallen Ludvika - Parkering,Pris: Saknas | El Vatten WC Dusch | Centrumnära
15.180799,60.161017,Ställviken - Rastplats,Pris: 0.00 SEK - Inlagt 2016-07-31 | Sopor | 
14.843611,60.355278,Malingarna Lägerplats - Naturcamping,Pris: 0.00 SEK - Inlagt 2021-08-21 | TC Sopor | Badplats Fiskeplats Lugnt och Avskilt Naturnära
15.1825,60.151389,Kajvägen - Parkering,Pris: 0.00 SEK - Inlagt 2011-09-18 |  | Centrumnära
15.103889,60.101111,Dammsjön - Parkering,Pris: Saknas | WC | Nära vatten Badplats
14.271667,60.143611,Lisjön - Friplats,Pris: 0.00 SEK - Inlagt 2014-05-15 | WC | Naturnära
14.966944,60.29875,Havstjärnen - Friplats,Pris: 0.00 SEK - Inlagt 2007-11-18 |  | Badplats
14.919167,60.341694,Flogen - Naturcamping,Pris: 50.00 SEK - Inlagt 2021-06-25 | TC Sopor | Fiskeplats Naturnära
15.098428,60.101615,Klenshyttan - Parkering,Pris: 0.00 SEK - Inlagt 2020-07-12 | WC Sopor | Sevärdhet
14.864753,60.353997,Malingarna - Naturcamping,Pris: Saknas | WC | Nära vatten Badplats Fiskeplats Naturnära
14.924722,60.334722,Övre Hedtjärn - Naturcamping,Pris: 150.00 SEK - Inlagt 2024-05-22 | WC | Nära vatten Fiskeplats
15,60.21,Morhagen Fäbodshotell - Ställplats,Pris: 250.00 SEK - Inlagt 2021-05-09 | El Vatten Kassettömning Tömningsvagn WC Dusch Sopor | Nära vatten Fiskeplats Restaurang
14.975704,60.153076,Café och Dé - Ställplats,Pris: 220.00 SEK - Inlagt 2023-07-28 | El Vatten Kassettömning Tömningsvagn | Nära vatten Badplats Fiskeplats Lugnt och Avskilt Restaurang
13.333056,61.036058,Kläppen Camping - Campingplats,Pris: 300.00 SEK - Inlagt 2019-08-02 | El Vatten Kassettömning Markbrunn WC HCP Dusch WiFi Sopor Tvättstuga | Badplats Fiskeplats Restaurang Vintersportanläggning
13.719504,60.68247,Tingslundsvägen - Parkering,Pris: 0.00 SEK - Inlagt 2021-08-11 |  | 
12.935556,61.302778,Görälven - Parkering,Pris: 0.00 SEK - Inlagt 2015-08-25 | TC | Fiskeplats
13.3869,60.89899,Limedsforsen - Rastplats,Pris: 0.00 SEK - Inlagt 2021-08-11 | Vatten Kassettömning WC HCP Sopor | Nära vatten Fiskeplats Sevärdhet
13.858061,60.56504,Almasjön - Rastplats,Pris: 0.00 SEK - Inlagt 2021-07-05 | Sopor | Nära vatten
13.488941,60.514417,Lisskogsbrändan - Rastplats,Pris: 0.00 SEK - Inlagt 2006-11-28 | Kassettömning WC HCP Sopor | Restaurang
13.776056,60.621806,Vemforsen - Naturcamping,Pris: 0.00 SEK - Inlagt 2021-08-10 |  | Nära vatten Fiskeplats Lugnt och Avskilt Naturnära
14.154167,60.784167,Siknäs Naturcamping - Naturcamping,Pris: 150.00 SEK - Inlagt 2025-06-23 | TC Sopor | Badplats Fiskeplats Naturnära
14.648894,60.962186,Edåkersvägen - Parkering,Pris: 250.00 SEK - Inlagt 2025-07-11 | WC Sopor | Lugnt och Avskilt
14.5475,61.009444,Mora Husbilsparkering - Korttidsparkering,Pris: 0.00 SEK - Inlagt 2020-01-12 |  | Centrumnära
14.549444,61.008056,Stranden Mora - Parkering,Pris: 0.00 SEK - Inlagt 2013-12-09 |  | Centrumnära
14.6325,60.957222,Ångbåtsbryggan Nusnäs - Ställplats,Pris: 100.00 SEK - Inlagt 2024-01-01 | Vatten | Nära vatten Badplats Båthamn
14.11953,61.116199,Ladutimmernäs Badplats - Parkering,Pris: 0.00 SEK - Inlagt 2014-07-27 | HCP | Badplats Fiskeplats
14.126597,60.826062,Johannisholm - Rastplats,Pris: 0.00 SEK - Inlagt 2019-09-08 | Kassettömning WC HCP Sopor | Nära vatten
14.799167,60.968889,Ställplats Fåsås Fäbod - Ställplats,Pris: 100.00 SEK - Inlagt 2021-09-01 | Vatten TC | Lugnt och Avskilt Naturnära
14.373333,60.889167,Siljansfors Skogsbruksmuseum - Ställplats,Pris: 150.00 SEK - Inlagt 2021-09-16 | WC Sopor | Sevärdhet Restaurang
14.616111,60.894167,Kulåra Camping och Brygga - Ställplats,Pris: 150.00 SEK - Inlagt 2022-08-18 | Vatten TC Sopor | Badplats Fiskeplats Lugnt och Avskilt
14.694444,61.001944,Vildmarksfisket Mora - Naturcamping,Pris: 150.00 SEK - Inlagt 2026-01-27 | El TC Dusch Sopor | Nära vatten Badplats Fiskeplats Lugnt och Avskilt Naturnära
14.747222,61.2675,Helvetesfallet - Parkering,Pris: 0.00 SEK - Inlagt 2016-07-23 | Sopor | Sevärdhet
15.135962,60.878299,Rättviksbacken - Ställplats,Pris: 250.00 SEK - Inlagt 2022-03-22 | El Vatten Kassettömning WC Dusch Sopor Tvättstuga | Naturnära Vintersportanläggning
15.108972,60.948208,Dalhalla - Ställplats,Pris: 295.00 SEK - Inlagt 2023-08-11 | WC | Sevärdhet
15.102056,60.861528,Söderås - Rastplats,Pris: 0.00 SEK - Inlagt 2015-06-25 | HCP TC Sopor | 
15.055113,60.910922,Sjurberg - Rastplats,Pris: 0.00 SEK - Inlagt 2006-12-01 | WC HCP | 
15.702842,61.057626,Dalstuga Naturcamping - Naturcamping,Pris: 100.00 SEK - Inlagt 2023-09-12 | El Vatten TC Sopor | Nära vatten Badplats Fiskeplats Lugnt och Avskilt
15.129167,60.888611,Rättviksgården - Ställplats,Pris: 375.00 SEK - Inlagt 2023-08-12 | El Vatten WC Dusch Sopor | Centrumnära Lugnt och Avskilt
15.031667,60.907222,Vikarby båtklubb - Campingplats,Pris: 280.00 SEK - Inlagt 2021-02-22 | El Vatten WC Dusch Sopor | Badplats Båthamn
15.463417,59.912889,Malingsbo Lägerplats - Naturcamping,Pris: 195.00 SEK - Inlagt 2020-04-23 |  | Fiskeplats
15.458056,60.129139,Naturrastplats Barken - Rastplats,Pris: 0.00 SEK - Inlagt 2005-12-28 | WC HCP Sopor | Nära vatten Restaurang
15.4175,60.138056,Smedjebackens Båtklubb - Ställplats,Pris: 250.00 SEK - Inlagt 2023-12-23 | El Vatten Kassettömning Markbrunn WC Dusch Sopor Tvättstuga | Centrumnära Båthamn
15.75495,60.348372,Säterdalen - Rastplats,Pris: 0.00 SEK - Inlagt 2024-01-26 | Kassettömning | Centrumnära
14.29,60.499722,Rutån - Naturcamping,Pris: 0.00 SEK - Inlagt 2021-07-04 |  | Nära vatten
14.467667,60.491444,Gullgråda - Rastplats,Pris: 0.00 SEK - Inlagt 2021-07-03 | WC HCP Sopor | Nära vatten Fiskeplats
14.235222,60.477917,Härjeån - Rastplats,Pris: 0.00 SEK - Inlagt 2021-08-10 | Sopor | 
12.759333,61.651722,Mörkrets Camping - Naturcamping,Pris: 100.00 SEK - Inlagt 2019-08-02 | El TC Sopor | Nära vatten Fiskeplats Naturnära
12.297156,62.106746,Sjöstugan - Campingplats,Pris: 330.00 SEK - Inlagt 2021-02-11 | El Vatten Kassettömning WC Dusch Sopor | Nära vatten Badplats Fiskeplats Naturnära
13.981,61.273167,Lägerplats Lokarakan Norr - Naturcamping,Pris: 60.00 SEK - Inlagt 2021-08-18 | TC | Nära vatten Fiskeplats Naturnära
13.723056,61.306944,Lägerplats Gryvelnäs - Naturcamping,Pris: 60.00 SEK - Inlagt 2008-12-07 | TC | Nära vatten Badplats Fiskeplats Lugnt och Avskilt
13.087678,61.561498,Bornåsjön - Parkering,Pris: 0.00 SEK - Inlagt 2021-08-11 |  | Nära vatten Badplats Fiskeplats Naturnära
12.823083,61.943139,Nipfjällets Vinterparkering - Parkering,Pris: 0.00 SEK - Inlagt 2006-12-05 |  | Naturnära
12.250417,62.063194,Valdalen - Parkering,Pris: 0.00 SEK - Inlagt 2010-02-04 |  | Naturreservat
13.082583,61.405528,Sörsjön - Parkering,Pris: 50.00 SEK - Inlagt 2020-08-01 | Vatten WC Sopor | Badplats
13.619722,61.078889,Mångsbodarna - Parkering,Pris: Saknas | TC | Naturnära
13.296028,61.110444,Vasaloppstarten - Parkering,Pris: 100.00 SEK - Inlagt 2021-08-11 | Vatten WC | Sevärdhet Vid Rastplats
13.243544,61.435561,Nornäs Camping - Naturcamping,Pris: 250.00 SEK - Inlagt 2021-02-22 | El Vatten WC Dusch WiFi Sopor Tvättstuga | Nära vatten Badplats Fiskeplats Naturnära
13.733768,61.31964,Gryvelnäs Norr - Naturcamping,Pris: 60.00 SEK - Inlagt 2021-07-26 | TC Sopor | Nära vatten Fiskeplats Lugnt och Avskilt Naturnära
12.658691,61.931106,Lägerplats Mellebron - Naturcamping,Pris: 60.00 SEK - Inlagt 2008-12-07 | TC Sopor | Nära vatten Fiskeplats Naturnära
12.95884,61.757971,Lägerplats Hedarfjorden Syd - Naturcamping,Pris: 60.00 SEK - Inlagt 2005-03-12 | TC Sopor | Nära vatten Fiskeplats Lugnt och Avskilt Naturnära
12.933333,61.784861,Lägerplats Kringelfjorden N - Naturcamping,Pris: 60.00 SEK - Inlagt 2021-05-03 | TC Sopor | Nära vatten Fiskeplats
14.275194,61.108278,Spjutmosjön - Rastplats,Pris: 0.00 SEK - Inlagt 2005-12-29 | WC HCP Sopor | Nära vatten Restaurang
13.075667,61.69375,Lomkällan - Rastplats,Pris: 0.00 SEK - Inlagt 2010-08-04 | WC HCP Sopor | Sevärdhet Restaurang
19.263137,57.971923,Ekevikens Camping - Campingplats,Pris: 290.00 SEK - Inlagt 2023-12-04 | El Vatten Kassettömning Markbrunn WC Dusch Sopor Tvättstuga | Nära vatten Badplats
19.080838,57.952325,Ställplats Lauterhorn - Ställplats,Pris: 150.00 SEK - Inlagt 2023-07-03 | El Vatten Kassettömning WC Dusch | Nära vatten Sevärdhet Båthamn
18.127085,56.920588,Hoburgen - Parkering,Pris: Saknas |  | Sevärdhet
18.3835,57.719833,Krusmyntagården - Parkering,Pris: Saknas | WC | Badplats Sevärdhet
18.88649,57.730902,Hide - Parkering,Pris: Saknas |  | Nära vatten
18.988546,57.792503,Lergrav - Parkering,Pris: Saknas | Sopor | Sevärdhet
18.853566,57.435463,Katthammarsvik - Ställplats,Pris: 150.00 SEK - Inlagt 2025-05-03 | WC | Nära vatten Badplats
19.024364,57.776767,Furildens Naturreservat - Parkering,Pris: 0.00 SEK - Inlagt 2018-08-05 |  | Naturreservat
18.15,56.942778,Kettelviks Stenmuseum - Parkering,Pris: 0.00 SEK |  | Sevärdhet
19.057639,57.865694,Fårösunds Hamn - Ställplats,Pris: 240.00 SEK - Inlagt 2020-07-29 | WC Dusch Sopor | Båthamn
18.956111,57.728333,Smöjen - Parkering,Pris: Saknas | TC Sopor | Badplats Fiskeplats Båthamn Lugnt och Avskilt
18.924579,57.919625,Blå Lagunen - Ställplats,Pris: 150.00 SEK - Inlagt 2023-08-04 | TC Sopor | Nära vatten Badplats Lugnt och Avskilt Naturreservat
18.274308,57.623032,Träffpunkt Gotland - Rastplats,Pris: 0.00 SEK - Inlagt 2018-06-04 | Vatten WC HCP Sopor | Nära vatten
19.029133,57.854374,Bungemuséet - Rastplats,Pris: 0.00 SEK - Inlagt 2006-07-28 | WC Sopor | Sevärdhet
18.925635,57.834294,Ringkorset - Rastplats,Pris: 0.00 SEK - Inlagt 2007-12-03 | WC HCP | 
18.295327,57.058717,Käldhagen - Rastplats,Pris: 0.00 SEK - Inlagt 2021-06-16 | WC HCP Sopor | 
18.691667,57.340278,Hallute Backe - Rastplats,Pris: 0.00 SEK - Inlagt 2012-07-12 | Vatten WC HCP Sopor | 
19.132972,57.915389,Kyrkviken - Rastplats,Pris: 0.00 SEK - Inlagt 2019-09-07 | Vatten WC HCP Dusch | Sevärdhet
18.308759,56.944079,Vändburg Hamn - Ställplats,Pris: 170.00 SEK - Inlagt 2022-08-07 | Vatten | Nära vatten Sevärdhet Båthamn
18.839434,57.894728,Bläse Kalkbruk - Ställplats,Pris: 380.00 SEK - Inlagt 2024-07-23 | El Vatten WC HCP Dusch Sopor | Sevärdhet Båthamn
18.917199,57.422502,Herrviks Hamn - Ställplats,Pris: Saknas | Vatten WC HCP Dusch | Badplats Fiskeplats Restaurang
18.124722,57.294028,Vavle Fiskeläge - Parkering,Pris: Saknas | WC | Badplats Fiskeplats Naturnära
18.416133,57.754245,Kinnerstugan Lummelunda - Ställplats,Pris: 100.00 SEK - Inlagt 2019-12-23 | El WC Dusch Tvättstuga | Sevärdhet
18.188482,57.389126,Klinte Båtklubb - Ställplats,Pris: 200.00 SEK - Inlagt 2020-08-13 | El Vatten Kassettömning WC Dusch Sopor Tvättstuga | Centrumnära Båthamn
18.551475,57.79855,Kojsagården - Ställplats,Pris: 150.00 SEK - Inlagt 2021-04-11 | El Vatten Kassettömning WC Dusch Tvättstuga | Eventcenter
18.71252,57.357608,Ställplats Ljugarns GK - Ställplats,Pris: 200.00 SEK - Inlagt 2024-07-29 | El Vatten Kassettömning Markbrunn WC Dusch | Restaurang Golfbana
16.365,61.541111,Orbaden - Parkering,Pris: 0.00 SEK - Inlagt 2019-06-27 |  | Centrumnära Badplats
16.407083,61.341944,Långnäs - Parkering,Pris: 0.00 SEK - Inlagt 2019-06-27 |  | Centrumnära Badplats
16.679413,61.218221,Norrlandsporten - Rastplats,Pris: 0.00 SEK - Inlagt 2005-03-20 | WC HCP Sopor | Restaurang
16.394324,61.346428,Bollnäs Turiststopp - Ställplats,Pris: 0.00 SEK - Inlagt 2023-06-18 | Kassettömning WC Sopor | Nära vatten Tankställe
16.618889,61.363333,Rengsjö Camping - Campingplats,Pris: 250.00 SEK - Inlagt 2025-03-13 | El Vatten Kassettömning Markbrunn WC Dusch WiFi Sopor Tvättstuga | Nära vatten Badplats Naturnära
16.963601,60.636216,Mackmyra Bruk Camping - Ställplats,Pris: 300.00 SEK - Inlagt 2025-07-22 | El Vatten WC Dusch | Sevärdhet Golfbana
17.160291,60.676571,Södra Skeppsbron - Ställplats,Pris: 300.00 SEK - Inlagt 2025-08-10 | El Kassettömning WC HCP Dusch WiFi Sopor Tvättstuga | Nära vatten Centrumnära
17.035333,60.315911,Hasselön - Friplats,Pris: 0.00 SEK - Inlagt 2006-11-28 | Sopor | Nära vatten Naturnära
16.943554,60.768678,Drumbron - Friplats,Pris: 0.00 SEK - Inlagt 2009-12-08 |  | Nära vatten Badplats Fiskeplats
17.018359,60.903356,Hagsta - Rastplats,Pris: 0.00 SEK - Inlagt 2024-07-18 | WC HCP Sopor | Restaurang Tankställe
17.119611,60.649556,Gävle Bro - Rastplats,Pris: 0.00 SEK - Inlagt 2006-07-25 | WC HCP Sopor | Restaurang Tankställe
16.914403,59.774004,Fjärdhundrabadet - Parkering,Pris: 0.00 SEK - Inlagt 2018-05-07 |  | Badanläggning
17.157488,61.048639,Axmar Brygga - Ställplats,Pris: 195.00 SEK - Inlagt 2023-04-26 | El Vatten Kassettömning Markbrunn WC Dusch Sopor | Badplats Fiskeplats Sevärdhet Båthamn Restaurang
17.144991,60.930477,Norrsundets Motorbåtsklubb - Ställplats,Pris: 180.00 SEK - Inlagt 2023-07-08 | El Vatten Kassettömning WC Dusch Sopor Tvättstuga | Badplats Fiskeplats Båthamn
16.635,60.441667,Gammelstilla Café - Ställplats,Pris: 50.00 SEK - Inlagt 2021-05-01 | El Vatten WC | Badplats Sevärdhet
16.557806,61.89425,Friggesunds Båthamn - Parkering,Pris: Saknas |  | Centrumnära Båthamn
16.679091,61.843292,Sördellen - Parkering,Pris: Saknas |  | Nära vatten
16.976944,61.516732,Ångersjöns Mat och Vildmarkscamping - Ställplats,Pris: 260.00 SEK - Inlagt 2024-06-10 | El Kassettömning WC | Nära vatten Badplats
16.5479,61.799057,Delsbo - Rastplats,Pris: 0.00 SEK - Inlagt 2013-12-16 | Sopor | Nära vatten Centrumnära Badplats
17.074722,61.696111,Vibod-Långsjön - Rastplats,Pris: 0.00 SEK - Inlagt 2006-11-28 | WC HCP Sopor | 
15.055084,61.674472,Voxnan - Friplats,Pris: 0.00 SEK - Inlagt 2005-03-12 |  | Nära vatten Fiskeplats
15.358425,61.960733,Snörbo - Naturcamping,Pris: 80.00 SEK - Inlagt 2023-07-09 | TC Sopor | Nära vatten Fiskeplats Lugnt och Avskilt Naturnära
16.065361,61.820917,Ljusdal - Rastplats,Pris: 0.00 SEK - Inlagt 2021-09-04 | Vatten Kassettömning WC Sopor | Nära vatten Restaurang Tankställe
15.553733,61.928941,Lassekrog - Rastplats,Pris: 0.00 SEK - Inlagt 2023-07-10 | Vatten Kassettömning WC HCP Sopor | Sevärdhet
14.823056,61.600278,Sandsjön Ljusdal - Rastplats,Pris: 0.00 SEK - Inlagt 2017-09-18 | WC HCP Sopor | Nära vatten
16.093611,61.825278,Östernäs - Ställplats,Pris: 0.00 SEK - Inlagt 2021-07-10 | El WC | Nära vatten Centrumnära Badplats
15.498528,61.961129,Aborrtjärn - Ställplats,Pris: Saknas | TC | Nära vatten Fiskeplats
17.338726,61.956794,Mellanfjärdens Camping - Campingplats,Pris: 300.00 SEK - Inlagt 2024-07-09 | El Vatten Kassettömning Markbrunn WC HCP Dusch Sopor Tvättstuga | Nära vatten Badplats Fiskeplats Båthamn Restaurang
17.217143,61.929748,Harmånger - Rastplats,Pris: 0.00 SEK - Inlagt 2005-12-28 | WC HCP Sopor | 
17.264722,62.045556,Gnarp - Rastplats,Pris: 0.00 SEK - Inlagt 2015-07-13 | WC HCP Sopor | Tankställe
17.43137,62.061024,Norrfjärdens Båthamn - Ställplats,Pris: 250.00 SEK - Inlagt 2021-08-18 | El Vatten WC Dusch | Nära vatten Badplats Båthamn
17.345642,61.897911,Stocka Gästhamn - Ställplats,Pris: 250.00 SEK - Inlagt 2022-06-03 | El Vatten Kassettömning Markbrunn WC Dusch WiFi | Nära vatten Båthamn
16.429722,60.853889,Valkalampi - Parkering,Pris: 0.00 SEK - Inlagt 2005-04-12 | TC | Badplats Fiskeplats Sevärdhet
16.287564,60.927375,Över-Jädern - Parkering,Pris: Saknas |  | Badplats
15.395858,61.503116,Sandsjön - Parkering,Pris: 0.00 SEK - Inlagt 2021-08-21 | TC | Nära vatten Fiskeplats Lugnt och Avskilt Naturnära
15.795,61.044444,Svabensverk - Ställplats,Pris: 150.00 SEK - Inlagt 2024-06-22 | Vatten TC Sopor | Nära vatten Badplats Fiskeplats
16.069444,61.3475,Alfta Gästgiveri - Parkering,Pris: 100.00 SEK - Inlagt 2012-12-09 | El | Centrumnära Restaurang
16.069447,61.344222,Kyrktjärn - Rastplats,Pris: 0.00 SEK - Inlagt 2005-12-22 | WC Sopor | Badplats Fiskeplats Tankställe
16.758333,60.579333,Hedåsbadet - Ställplats,Pris: 200.00 SEK - Inlagt 2025-07-18 | El WC Sopor | Nära vatten Badplats Restaurang
16.878611,60.290278,Sågen Badplats - Friplats,Pris: 0.00 SEK - Inlagt 2019-07-31 |  | Badplats Fiskeplats
16.754556,60.556,Bångs - Parkering,Pris: Saknas | Sopor | Nära vatten
16.918333,60.266389,Sevedskvarn - Parkering,Pris: 0.00 SEK - Inlagt 2014-08-24 | Sopor | Fiskeplats Vid Rastplats
16.539462,60.582663,Näsbysjön - Rastplats,Pris: 0.00 SEK - Inlagt 2005-09-24 | Kassettömning WC HCP Sopor | Nära vatten Sevärdhet
17.125578,61.2076,Ljusne - Parkering,Pris: 0.00 SEK - Inlagt 2020-09-15 |  | Nära vatten Centrumnära Fiskeplats
16.82292,61.170148,Ställplats Skogsand - Ställplats,Pris: 150.00 SEK - Inlagt 2023-08-11 | Vatten Kassettömning TC Sopor | Badplats Fiskeplats
16.967397,61.071896,Tönnerbro - Rastplats,Pris: 0.00 SEK - Inlagt 2005-03-20 | WC HCP Sopor | Restaurang Tankställe
16.984067,61.007575,Högbacka - Rastplats,Pris: 0.00 SEK - Inlagt 2017-07-27 | Kassettömning WC HCP Sopor | Nära vatten
16.987389,61.414167,Alebosjön - Rastplats,Pris: 0.00 SEK - Inlagt 2006-12-01 | Kassettömning WC HCP Sopor | Nära vatten
17.161389,61.292778,Söderhamns Golfklubb - Ställplats,Pris: 300.00 SEK - Inlagt 2023-07-24 | El WC Dusch | Golfbana
17.068882,61.306606,Söderhamns Citycamping - Ställplats,Pris: 260.00 SEK - Inlagt 2025-09-30 | El Vatten Kassettömning WC Dusch Tvättstuga | Centrumnära Båthamn
17.158075,61.261699,Sandarne Båtklubb - Ställplats,Pris: 200.00 SEK - Inlagt 2020-02-25 | El Kassettömning WC Dusch WiFi Tvättstuga | Badplats Fiskeplats Båthamn
17.113944,61.30425,Stugsundskajen - Ställplats,Pris: 140.00 SEK - Inlagt 2025-04-18 | El Kassettömning Markbrunn WC HCP Dusch WiFi | Nära vatten Fiskeplats Båthamn
12.836944,57.210833,Hackarpssjön - Parkering,Pris: Saknas | Sopor | Badplats
12.557177,56.8443,Grimsholmens Naturreservat - Parkering,Pris: 0.00 SEK - Inlagt 2016-05-22 | TC Sopor | Badplats Sevärdhet
12.671389,57.035833,Ätraforsdammen - Parkering,Pris: 0.00 SEK - Inlagt 2021-07-24 | TC Sopor | Badplats
12.746944,56.981944,Sjönevadssjön Badplats - Parkering,Pris: 0.00 SEK - Inlagt 2016-05-23 | TC Sopor | Badplats
12.942778,57.073056,Krogsered - Parkering,Pris: 0.00 SEK - Inlagt 2016-05-26 | TC Sopor | Badplats
12.361667,56.9375,Krågens Väg - Parkering,Pris: 0.00 SEK - Inlagt 2022-07-02 |  | Badplats
12.357222,56.947222,Digesgårds Naturreservat - Parkering,Pris: 0.00 SEK - Inlagt 2023-05-31 | TC Sopor | Badplats Naturreservat
12.744167,57.02,Yngeredsforsen - Döda fallet - Parkering,Pris: 0.00 SEK - Inlagt 2016-12-08 |  | Sevärdhet Lugnt och Avskilt
12.65693,57.094238,Sumpafallens Naturreservat - Parkering,Pris: 0.00 SEK - Inlagt 2021-07-25 | TC | Sevärdhet Lugnt och Avskilt Naturreservat
12.739722,56.984444,Sjönevad Gästis - Parkering,Pris: 100.00 SEK - Inlagt 2016-05-23 | Vatten Sopor | Badplats Restaurang
12.575861,56.901972,Skrea Backe - Rastplats,Pris: 0.00 SEK - Inlagt 2005-03-20 | Kassettömning WC HCP Sopor | Restaurang Tankställe
12.709583,56.833861,Susedalen - Rastplats,Pris: 0.00 SEK - Inlagt 2005-03-20 | WC HCP Sopor | Lugnt och Avskilt Restaurang
12.927778,57.119444,Övrarp - Rastplats,Pris: 0.00 SEK - Inlagt 2013-12-17 | WC HCP Sopor | 
13.037222,57.106389,Fegen - Ställplats,Pris: 100.00 SEK - Inlagt 2020-08-23 | El Vatten WC Sopor | Nära vatten Badplats Fiskeplats
12.735656,57.131914,Sönneräng - Ställplats,Pris: 120.00 SEK - Inlagt 2025-09-11 | Vatten Kassettömning Markbrunn WC Dusch Sopor | Köpcentrum
12.632222,56.996111,Ullared Flädje Golfklubb - Ställplats,Pris: 150.00 SEK - Inlagt 2019-09-09 | El Vatten WC Dusch Sopor | Golfbana
12.46687,56.89282,Lövstaviken - Ställplats,Pris: 240.00 SEK - Inlagt 2024-04-27 | El Vatten Kassettömning WC Dusch WiFi Sopor | Nära vatten Båthamn
12.493182,56.893882,Falkenbergs Båtsällskap - Ställplats,Pris: 290.00 SEK - Inlagt 2026-03-26 | El Vatten Kassettömning Markbrunn WC Dusch Sopor | Centrumnära Fiskeplats Båthamn
12.638333,56.755,Enets Naturreservat - Parkering,Pris: 0.00 SEK - Inlagt 2016-05-31 | Sopor | Nära vatten
12.950556,56.598333,Lilla Böslid - Ställplats,Pris: 150.00 SEK - Inlagt 2023-07-16 | Vatten Kassettömning Markbrunn Sopor | Naturnära Lantgård
12.854785,56.668904,Södra Vägen - Parkering,Pris: 36.00 SEK - Inlagt 2020-07-26 |  | Centrumnära Lugnt och Avskilt
12.847778,56.672778,Torsgatan - Parkering,Pris: 50.00 SEK - Inlagt 2014-05-11 |  | Centrumnära
12.890556,56.675,Halmstad Arena - Parkering,Pris: 0.00 SEK - Inlagt 2018-05-15 |  | 
12.843388,56.668438,Alevallen - Parkering,Pris: 0.00 SEK - Inlagt 2014-05-12 |  | 
12.864722,56.670833,Halmstad Station - Parkering,Pris: 50.00 SEK - Inlagt 2014-05-11 |  | Centrumnära
13.232,56.7147,Esmared - Rastplats,Pris: 0.00 SEK - Inlagt 2021-07-25 | Kassettömning WC HCP Sopor | 
12.908472,56.657611,Hallarna - Parkering,Pris: 0.00 SEK - Inlagt 2019-06-13 | WC HCP Sopor | Restaurang Tankställe Köpcentrum
12.876944,56.832028,Slättåkragården - Ställplats,Pris: 200.00 SEK - Inlagt 2023-07-28 | El Vatten WC Dusch WiFi Tvättstuga | Lugnt och Avskilt
12.8588,56.6652,Citycamp Halmstad - Ställplats,Pris: 220.00 SEK - Inlagt 2022-10-02 | El Vatten Kassettömning Tömningsvagn WC Dusch Sopor | Nära vatten Centrumnära
12.644444,56.7275,Skallkrokens Hamn - Ställplats,Pris: 280.00 SEK - Inlagt 2022-10-16 | El Vatten Kassettömning Markbrunn WC Dusch Tvättstuga | Båthamn Naturnära
12.777222,56.641389,Grötviks Småbåtshamn - Ställplats,Pris: 300.00 SEK - Inlagt 2024-07-15 | El Vatten Kassettömning Markbrunn WC Dusch WiFi Sopor Tvättstuga | Nära vatten Båthamn Restaurang
12.851531,56.659921,Halmstad Småbåtshamn - Ställplats,Pris: 285.00 SEK - Inlagt 2025-06-18 | El Vatten Kassettömning WC Dusch WiFi Sopor | Nära vatten Badplats Båthamn
13.3369,57.0252,Nissaryds skans - Parkering,Pris: Saknas |  | Sevärdhet
12.963056,57.027778,Drängsereds Badplats - Parkering,Pris: 0.00 SEK - Inlagt 2016-05-26 | TC Sopor | Badplats
13.293777,57.037105,Skärshult - Rastplats,Pris: 0.00 SEK - Inlagt 2023-08-17 | Kassettömning WC HCP Sopor | Nära vatten
13.645556,56.9425,Tiraholms Fisk - Ställplats,Pris: 270.00 SEK - Inlagt 2025-08-09 | El Vatten Kassettömning WC | Badplats Fiskeplats Restaurang
12.041889,57.551083,Sandsjöbackareservatet - Parkering,Pris: 0.00 SEK - Inlagt 2016-08-21 |  | Naturreservat
11.937498,57.395924,Råö rymdobservatorium - Parkering,Pris: 0.00 SEK - Inlagt 2011-05-17 | El | Sevärdhet Lugnt och Avskilt Naturreservat
12.016168,57.390305,Kells Hage - Parkering,Pris: 0.00 SEK - Inlagt 2013-08-11 | Sopor | Nära vatten Badplats
12.021422,57.388673,Gottskärs Hamn - Ställplats,Pris: 120.00 SEK - Inlagt 2025-05-26 | El WC Dusch | Nära vatten
11.920583,57.431,Smarholmen - Parkering,Pris: 200.00 SEK - Inlagt 2021-05-02 | Vatten WC Sopor | Nära vatten Fiskeplats
11.931917,57.425667,Västra Hagen - Parkering,Pris: 0.00 SEK - Inlagt 2011-05-24 | WC | Badplats Fiskeplats
12.102672,57.401757,Tjolöholms Slott - Parkering,Pris: 185.00 SEK - Inlagt 2022-07-20 | Vatten WC HCP Sopor | Sevärdhet
12.05098,57.555088,Sandsjöbacka - Rastplats,Pris: 0.00 SEK - Inlagt 2014-11-09 | Vatten Kassettömning WC HCP Sopor | Tankställe
12.190414,57.388729,Torpasjön - Rastplats,Pris: 0.00 SEK - Inlagt 2019-09-08 | Kassettömning WC HCP Sopor | 
12.192952,57.382088,Ölmevallasjön - Rastplats,Pris: 0.00 SEK - Inlagt 2007-01-16 | Kassettömning WC HCP Sopor | Nära vatten
11.915419,57.455983,Lerkils Hamn - Ställplats,Pris: 300.00 SEK - Inlagt 2024-05-05 | El Vatten WC Dusch Tvättstuga | Nära vatten Båthamn Restaurang
12.270076,57.400938,Skårs Gård - Ställplats,Pris: 220.00 SEK - Inlagt 2023-12-23 | El Markbrunn WC Dusch WiFi Sopor | Lugnt och Avskilt Restaurang
12.152974,57.316778,Frillesås Badförening - Ställplats,Pris: 115.00 SEK - Inlagt 2021-04-04 | WC HCP Dusch Sopor | Nära vatten Badplats
12.339688,57.33766,Stättareds 4H-gård - Ställplats,Pris: 200.00 SEK - Inlagt 2021-03-24 | El Vatten WC Dusch | Lantgård Vandrarhem
13.167778,56.395556,Våxtorps Naturcamping - Campingplats,Pris: 260.00 SEK - Inlagt 2021-02-13 | El Vatten Kassettömning WC Dusch Sopor Tvättstuga | Badplats Fiskeplats Lugnt och Avskilt
13.233389,56.35275,Sjöalts IF Ställplats - Ställplats,Pris: 120.00 SEK - Inlagt 2021-04-14 | WC Sopor | Badplats
13.036748,56.508236,Lagavägen Laholm - Ställplats,Pris: 0.00 SEK - Inlagt 2020-11-26 | Sopor | Nära vatten Centrumnära Fiskeplats Sevärdhet
12.969098,56.54213,Snapparp - Rastplats,Pris: 0.00 SEK - Inlagt 2006-12-01 | Kassettömning WC HCP Sopor | Tankställe
13.268222,56.521472,Knäred - Rastplats,Pris: 0.00 SEK - Inlagt 2006-07-28 | WC HCP Sopor | 
12.488601,57.145606,Gässlösa Naturreservat - Parkering,Pris: 0.00 SEK - Inlagt 2020-07-31 | TC Sopor | Naturreservat
12.506308,57.068516,Öströö Fårfarm - Ställplats,Pris: 120.00 SEK - Inlagt 2025-07-11 | El Vatten WC | Lantgård
12.406944,57.113056,Grimeton Radiostation - Ställplats,Pris: 100.00 SEK - Inlagt 2026-02-08 | WC Sopor | Sevärdhet Lugnt och Avskilt
12.353278,57.063167,Himle - Rastplats,Pris: 0.00 SEK - Inlagt 2019-07-12 | Vatten Kassettömning WC HCP Sopor | Restaurang Tankställe
12.563371,57.124881,Åkulla Outdoor Resort - Ställplats,Pris: 350.00 SEK - Inlagt 2021-05-27 | El Vatten Kassettömning Markbrunn WC Dusch Sopor | Fiskeplats Sevärdhet Lugnt och Avskilt Naturnära Restaurang
12.252409,57.124357,Naturum Getterön - Ställplats,Pris: 300.00 SEK - Inlagt 2026-02-08 | El Sopor | Nära vatten Sevärdhet Naturreservat
12.226763,57.117124,Getterön Marina - Ställplats,Pris: 300.00 SEK - Inlagt 2023-10-06 | El Vatten Kassettömning Markbrunn WC Dusch WiFi Sopor Tvättstuga | Båthamn Restaurang
12.22444,57.12193,Getteröns Flygklubb - Ställplats,Pris: 240.00 SEK - Inlagt 2024-10-12 | El Vatten Kassettömning Markbrunn WC WiFi | Badplats
12.114722,57.239722,Bua Hamnplan - Ställplats,Pris: 260.00 SEK - Inlagt 2025-04-08 | El Vatten Kassettömning Markbrunn WC HCP Dusch WiFi Sopor Tvättstuga | Nära vatten Båthamn
12.2425,57.11,Gästhamn Varberg - Ställplats,Pris: 450.00 SEK - Inlagt 2024-01-02 | El Vatten WC Dusch WiFi Tvättstuga | Nära vatten Centrumnära Båthamn
12.325126,57.04014,Rödlix Vandrarhem & Camping - Ställplats,Pris: 330.00 SEK - Inlagt 2021-03-24 | El Vatten Kassettömning Markbrunn WC Dusch WiFi Sopor Tvättstuga | Vid Campingplats Vandrarhem
14.353595,62.998349,Fröjdholmen - Parkering,Pris: Saknas | El | 
13.027913,62.807316,Storsjö Fjällturism och Fiskecamp - Ställplats,Pris: 150.00 SEK - Inlagt 2025-07-04 | El Vatten Kassettömning Sopor | Nära vatten Fiskeplats
14.474241,62.548584,Nästelströmmen - Friplats,Pris: 0.00 SEK - Inlagt 2007-11-18 |  | Fiskeplats
14.44126,62.809386,Hoverbergs Camping - Campingplats,Pris: 300.00 SEK - Inlagt 2024-06-28 | El Vatten Kassettömning WC Dusch Sopor Tvättstuga | Nära vatten Badplats Fiskeplats Båthamn
14.485769,62.488938,Kojbyn - Naturcamping,Pris: 250.00 SEK - Inlagt 2023-06-16 | Kassettömning WC TC Dusch Sopor | Nära vatten Badplats Naturnära
14.169901,62.66218,Skålan Naturcamping - Ställplats,Pris: 50.00 SEK - Inlagt 2021-08-03 | Vatten TC | Nära vatten Badplats Fiskeplats
14.434861,62.781472,Galhammarudden - Parkering,Pris: Saknas | TC | Badplats
14.09827,62.503737,Storhogna - Parkering,Pris: Saknas |  | Vintersportanläggning
14.180709,62.503482,Klövsjöfjäll - Ställplats,Pris: 250.00 SEK - Inlagt 2021-07-07 | El Vatten Kassettömning Markbrunn WC Dusch Sopor | Badplats Restaurang Golfbana Vintersportanläggning
13.940004,63.024466,Gräftåvallen - Parkering,Pris: Saknas |  | Vintersportanläggning
14.230689,62.479161,Klövsjö-Vemdalens Golfklubb - Parkering,Pris: 150.00 SEK - Inlagt 2021-02-14 | El WC Dusch | Restaurang Golfbana
14.429444,62.828889,Hoverberget - Parkering,Pris: 0.00 SEK - Inlagt 2023-05-26 | TC | Naturnära
14.440694,62.662806,Mårten-Gunnarsbodarna - Friplats,Pris: 0.00 SEK - Inlagt 2007-11-18 |  | Naturnära
12.710221,62.895584,Kläppen - Parkering,Pris: 50.00 SEK - Inlagt 2009-09-22 | TC Sopor | Vintersportanläggning
13.958944,62.699361,Börtnen - Friplats,Pris: 0.00 SEK - Inlagt 2023-05-25 |  | Fiskeplats Lugnt och Avskilt
14.42705,62.749647,Dollar Store - Parkering,Pris: 0.00 SEK - Inlagt 2013-12-04 |  | Köpcentrum
14.435041,62.767344,Svenstavik - Ställplats,Pris: 200.00 SEK - Inlagt 2021-08-12 | El Vatten Kassettömning Markbrunn WC HCP Sopor | Centrumnära Sevärdhet Köpcentrum
14.684298,62.788057,Dödre - Rastplats,Pris: 0.00 SEK - Inlagt 2005-12-05 |  | Nära vatten Lugnt och Avskilt
14.437204,62.789454,Timmeravlägget - Ställplats,Pris: Saknas | Vatten Kassettömning WC Sopor | Nära vatten Fiskeplats
13.918422,62.715598,Pintorp - Ställplats,Pris: 50.00 SEK - Inlagt 2017-07-18 | Kassettömning TC Sopor | Nära vatten
13.826739,62.841914,Galå Fjällgård - Ställplats,Pris: 300.00 SEK - Inlagt 2021-06-11 | El Vatten Kassettömning Markbrunn WC Dusch Sopor Tvättstuga | Nära vatten Fiskeplats Vintersportanläggning
12.795749,62.854714,Ljungdalen - Ställplats,Pris: Saknas | El | Vintersportanläggning
15.434167,62.754722,Bromyra fiskecamp - Ställplats,Pris: 100.00 SEK - Inlagt 2021-07-14 | Vatten | Nära vatten Centrumnära Fiskeplats Lugnt och Avskilt
15.356109,62.814541,Gimån - Rastplats,Pris: 0.00 SEK - Inlagt 2005-12-28 | Kassettömning WC HCP Sopor | 
15.418611,62.754167,Hotell Jämtkrogen - Ställplats,Pris: 160.00 SEK - Inlagt 2020-08-11 | El Vatten WC Dusch Sopor | Centrumnära Restaurang
12.741639,62.74,Flatruet - Parkering,Pris: 0.00 SEK - Inlagt 2020-01-13 |  | Naturnära
12.950472,62.24575,Pilgrimsleden - Parkering,Pris: Saknas |  | Naturnära
12.467337,62.714563,Djupdalsvallen - Parkering,Pris: 80.00 SEK - Inlagt 2021-07-15 | Vatten TC | Sevärdhet
13.956944,62.149444,Linsell - Ställplats,Pris: 80.00 SEK - Inlagt 2023-07-08 | Kassettömning TC Sopor | Badplats
13.139167,62.458889,Rändhå - Friplats,Pris: 0.00 SEK - Inlagt 2007-11-17 |  | Nära vatten Fiskeplats Naturnära
13.130428,62.451778,Saxvall - Friplats,Pris: 0.00 SEK - Inlagt 2007-11-17 |  | Fiskeplats Lugnt och Avskilt Naturnära
12.958497,62.144663,Sörvattnet - Friplats,Pris: 0.00 SEK - Inlagt 2005-03-13 | TC Sopor | Fiskeplats
14.122828,62.124828,Veman - Parkering,Pris: Saknas |  | Badplats Fiskeplats
13.850111,62.236556,Över-Ransjön - Friplats,Pris: 0.00 SEK - Inlagt 2007-12-09 |  | Badplats Fiskeplats
12.865521,62.281187,Högvålen - Parkering,Pris: Saknas | TC | Fiskeplats Lugnt och Avskilt
13.885278,62.4755,Vemdalen - Friplats,Pris: 0.00 SEK - Inlagt 2007-11-18 |  | Fiskeplats
12.678947,62.43525,Tännäs - Naturcamping,Pris: 75.00 SEK - Inlagt 2024-08-05 |  | Fiskeplats Lugnt och Avskilt
12.79999,62.336286,Östra Fröstsjöåsen - Friplats,Pris: 0.00 SEK - Inlagt 2007-11-18 |  | Lugnt och Avskilt
12.528604,62.547434,Risnäset - Ställplats,Pris: 160.00 SEK - Inlagt 2023-06-10 | Vatten WC | Nära vatten Centrumnära
12.206861,62.581833,Anderssjöåfallets Rastplats - Rastplats,Pris: 0.00 SEK - Inlagt 2018-01-17 | WC Sopor | Nära vatten
14.941667,62.173056,Ytterhogdal - Ställplats,Pris: 100.00 SEK - Inlagt 2025-06-27 | Vatten WC Dusch Sopor | Centrumnära Badplats
13.873889,62.174722,Bergvalls - Ställplats,Pris: 40.00 SEK - Inlagt 2010-01-01 | Vatten TC | Nära vatten Fiskeplats Sevärdhet
13.745,62.41,Hedlanda Flygplats - Ställplats,Pris: 150.00 SEK - Inlagt 2023-10-30 | El Vatten WC Dusch Sopor | 
14.63598,61.796542,Fågelsjö Gammelgård - Ställplats,Pris: 150.00 SEK - Inlagt 2017-07-06 | El WC Dusch | Nära vatten Fiskeplats Lantgård
13.074649,62.640367,Över-Särvsjön - Ställplats,Pris: Saknas | TC | Nära vatten Fiskeplats Sevärdhet
12.938129,62.181012,Kölån - Friplats,Pris: 0.00 SEK - Inlagt 2010-07-24 |  | Fiskeplats
14.21125,63.577972,Landögssjön - Parkering,Pris: Saknas | TC | Nära vatten Fiskeplats
14.457222,63.318444,Krokomvikens Camping - Parkering,Pris: Saknas |  | Vid Campingplats
14.674833,63.672111,Hårkan - Parkering,Pris: Saknas | TC Sopor | Badplats Fiskeplats
14.309722,63.758333,Skärvångens Bymejeri - Ställplats,Pris: 75.00 SEK - Inlagt 2014-06-20 | El Vatten | Fiskeplats Sevärdhet
14.052324,64.091119,Fiskevägen - Rastplats,Pris: 0.00 NOK - Inlagt 2005-03-13 | TC Sopor | Nära vatten Fiskeplats
14.248056,63.898333,Häggsjön - Rastplats,Pris: 0.00 SEK - Inlagt 2023-07-08 | TC | Nära vatten Fiskeplats
14.443639,63.31975,Krokom - Rastplats,Pris: 0.00 SEK - Inlagt 2019-06-25 | Kassettömning WC HCP Sopor | Nära vatten
14.015278,63.330833,Trångsviken - Ställplats,Pris: 150.00 SEK - Inlagt 2023-07-12 | El Vatten Markbrunn WC Dusch Sopor | Badplats Fiskeplats
16.631944,63.023056,Hotell Indalsleden - Parkering,Pris: Saknas |  | Restaurang
16.179167,63.147222,Zorbcenter - Ställplats,Pris: 150.00 SEK - Inlagt 2021-10-11 | El TC Sopor | Nära vatten Fiskeplats
16.519722,63.056111,Döda Fallet - Ställplats,Pris: 40.00 SEK - Inlagt 2015-07-12 | WC HCP | Sevärdhet
16.622222,62.989722,Wilderness Adventures Sweden - Naturcamping,Pris: 200.00 SEK - Inlagt 2025-08-06 | El Vatten Kassettömning Markbrunn WC Dusch Sopor | Lugnt och Avskilt Naturnära
16.3825,63.099722,Hammarstrand - Parkering,Pris: Saknas | TC Sopor | Badplats Fiskeplats
15.935951,63.180487,Selsviken - Rastplats,Pris: 0.00 SEK - Inlagt 2023-09-22 |  | 
16.056604,63.146224,Krångede Naturcamping - Naturcamping,Pris: 100.00 SEK - Inlagt 2020-07-13 | TC Sopor | Naturnära
16.343889,63.12,Hammarstrands Camping - Campingplats,Pris: 220.00 SEK - Inlagt 2021-02-23 | El Vatten Kassettömning WC HCP Dusch WiFi Sopor Tvättstuga | Fiskeplats Sevärdhet Lugnt och Avskilt Badanläggning
15.855975,63.969521,Flåsjöstrands Camping - Campingplats,Pris: 230.00 SEK - Inlagt 2024-07-05 | El Vatten Kassettömning WC Dusch Sopor | Nära vatten Badplats
15.685306,64.146556,Alanäs Naturcamping - Ställplats,Pris: 0.00 SEK - Inlagt 2021-08-13 | TC | Nära vatten
15.905339,64.105004,Stornäsviken - Ställplats,Pris: Saknas |  | Badplats
15.460556,63.454722,Språnghällan - Parkering,Pris: Saknas | TC | Nära vatten Fiskeplats
15.481028,63.441667,Kvarnflyn - Parkering,Pris: Saknas | TC | Fiskeplats
14.379444,64.349444,Hällingsåfallet - Parkering,Pris: 0.00 SEK - Inlagt 2025-09-01 | TC | Fiskeplats Sevärdhet
14.2364,64.818261,Ankarede - Parkering,Pris: 150.00 SEK - Inlagt 2022-09-10 |  | Fiskeplats Sevärdhet
15.342778,63.575,Camp Route 45 - Campingplats,Pris: 260.00 SEK - Inlagt 2025-09-15 | El Vatten Kassettömning Markbrunn WC Dusch Sopor Tvättstuga | Nära vatten Badplats Fiskeplats
15.555833,63.848611,Ställplats Hembygdsgården - Ställplats,Pris: 100.00 SEK - Inlagt 2021-08-25 | WC Sopor | Centrumnära Köpcentrum
13.133175,63.192063,Storån - Friplats,Pris: 0.00 SEK - Inlagt 2020-07-19 |  | Badplats Fiskeplats
13.646564,63.303839,Mörsil - Parkering,Pris: Saknas |  | 
13.015556,63.426667,Ullådalen - Parkering,Pris: 0.00 SEK |  | Naturnära
14.197778,63.152778,Lillsjöbron Storsjön - Parkering,Pris: 0.00 SEK | TC | Nära vatten Badplats Fiskeplats
13.9,63.304167,Mattmar - Rastplats,Pris: 0.00 SEK - Inlagt 2005-03-20 | Vatten WC HCP Sopor | Sevärdhet
13.162222,63.372778,Åre Björnänge - Rastplats,Pris: 0.00 SEK - Inlagt 2005-03-20 | Kassettömning WC HCP Sopor | 
12.740242,63.44303,Tännforsens Turiststation - Ställplats,Pris: 150.00 SEK - Inlagt 2021-07-03 | El Vatten WC Dusch Sopor | Nära vatten Sevärdhet Lugnt och Avskilt Naturnära Naturreservat
14.06969,63.23539,Ställplats Arvesund - Ställplats,Pris: 250.00 SEK - Inlagt 2025-04-23 | El Vatten Kassettömning Markbrunn WC Dusch WiFi Sopor | Fiskeplats Lugnt och Avskilt Naturnära
12.363551,63.170778,Storulvåns Fjällstation - Parkering,Pris: 30.00 SEK - Inlagt 2016-09-29 |  | Vintersportanläggning
14.630971,63.177735,Östersunds Småbåtshamn - Parkering,Pris: 15.00 SEK - Inlagt 2020-01-13 |  | Centrumnära Båthamn
14.609799,63.170397,Vallsundsbron - Parkering,Pris: Saknas |  | Nära vatten Centrumnära Badplats Fiskeplats
14.80224,63.03258,Ångsta Camping - Campingplats,Pris: 200.00 SEK - Inlagt 2025-07-14 | El Vatten Kassettömning WC Dusch Sopor | 
14.520071,57.892783,Åsens by - Ställplats,Pris: 150.00 SEK - Inlagt 2024-05-18 | WC Dusch Sopor Tvättstuga | Sevärdhet
14.968333,57.6675,Bryggeriet - Parkering,Pris: 0.00 SEK - Inlagt 2016-12-16 |  | Centrumnära
15.099844,57.635704,Lyckarp - Ställplats,Pris: 150.00 SEK - Inlagt 2024-06-22 | El Vatten Kassettömning Tömningsvagn TC Sopor | Naturnära
13.625,57.435833,Isaberg - Rastplats,Pris: 0.00 SEK - Inlagt 2006-07-29 | WC HCP Sopor | Badplats Restaurang Vintersportanläggning
13.54448,57.308298,Marknadsplatsen - Ställplats,Pris: 0.00 SEK - Inlagt 2018-07-20 | Vatten WC HCP Dusch Sopor | Centrumnära Tankställe
13.843117,57.389547,Saxhyttan - Parkering,Pris: Saknas | Sopor | Nära vatten Fiskeplats Sevärdhet
13.883412,57.317713,Hillerstorp Hamn - Ställplats,Pris: 0.00 SEK - Inlagt 2025-06-28 | Vatten Kassettömning Markbrunn WC | Nära vatten Sevärdhet Lugnt och Avskilt
13.734431,57.340034,Hylténs Industrimuseum - Ställplats,Pris: 0.00 SEK - Inlagt 2023-05-04 | WC Sopor | Badplats Sevärdhet
14.459381,58.028066,Gränna Hamn - Parkering,Pris: 200.00 SEK - Inlagt 2025-06-19 | WC HCP Sopor | Nära vatten Centrumnära Badplats Sevärdhet
14.225194,57.788306,Elmiamässan - Parkering,Pris: Saknas |  | Eventcenter
14.258611,57.792778,Vätterstranden - Ställplats,Pris: 200.00 SEK - Inlagt 2021-08-24 | El Vatten Kassettömning Markbrunn WC HCP Sopor | Nära vatten Badplats
14.191662,57.781193,Rosenbergsgatan - Ställplats,Pris: 24.00 SEK - Inlagt 2021-06-17 |  | Centrumnära Badplats
14.459917,58.028694,Amiralsvägen - Parkering,Pris: 150.00 SEK - Inlagt 2022-03-30 | WC HCP | Nära vatten Centrumnära Badplats
14.024167,57.853,Risbro - Rastplats,Pris: 0.00 SEK - Inlagt 2005-09-15 | Kassettömning WC HCP Sopor | Nära vatten
14.266825,57.85176,Vista Kulle - Rastplats,Pris: 0.00 SEK - Inlagt 2016-07-19 | Vatten WC HCP Sopor | 
14.318683,57.924335,Vätterleden - Rastplats,Pris: 0.00 SEK - Inlagt 2021-02-11 | WC HCP Sopor | Restaurang Tankställe
14.508278,58.052707,Brahehus - Rastplats,Pris: 0.00 SEK - Inlagt 2021-02-11 | WC HCP Sopor | Sevärdhet Restaurang Tankställe
14.442161,57.995863,Gyllene Uttern - Rastplats,Pris: 0.00 SEK - Inlagt 2021-02-11 | Kassettömning WC HCP Sopor | Restaurang Tankställe
14.331302,57.936722,Gunneryd - Rastplats,Pris: 0.00 SEK - Inlagt 2021-02-11 | Vatten WC HCP Sopor | Sevärdhet
14.15649,57.69133,Torsvik - Rastplats,Pris: 0.00 SEK - Inlagt 2006-07-29 | Vatten WC HCP Sopor | Restaurang Tankställe
14.182356,57.666083,Hyltena Stugby & Nattcamp - Ställplats,Pris: 200.00 SEK - Inlagt 2023-09-24 | El Kassettömning WC Dusch WiFi | Nära vatten Badplats Tankställe Vid Rastplats
14.460871,58.027196,Grenna Hamn Ställplats - Ställplats,Pris: 295.00 SEK - Inlagt 2025-06-19 | El Vatten Kassettömning Markbrunn WC Dusch Sopor | Nära vatten Centrumnära Badplats
14.492391,57.935738,Bauergården - Ställplats,Pris: 325.00 SEK - Inlagt 2025-08-14 | El Vatten Kassettömning Markbrunn WC Dusch WiFi Sopor Tvättstuga | Nära vatten Badplats Naturnära Restaurang
13.845753,57.995528,Kyrkekvarn Turism - Ställplats,Pris: 200.00 SEK - Inlagt 2019-12-22 | El Vatten Kassettömning Markbrunn WC Dusch WiFi | Nära vatten Badplats Eventcenter
14.701389,57.658889,Brinellgatan - Ställplats,Pris: 0.00 SEK - Inlagt 2025-07-17 |  | Centrumnära
14.690139,57.515611,Varviksbadet - Ställplats,Pris: 250.00 SEK - Inlagt 2025-05-28 | Vatten Kassettömning Markbrunn WC | Nära vatten Badplats Fiskeplats
14.8275,57.580278,Stensjöns Badplats - Parkering,Pris: 0.00 SEK - Inlagt 2011-06-27 |  | Nära vatten Badplats
14.670389,57.681056,Nässjöbyn - Rastplats,Pris: 0.00 SEK - Inlagt 2020-11-06 | Kassettömning WC Sopor | Lugnt och Avskilt
14.467778,57.361389,Vrigstad - Friplats,Pris: 0.00 SEK - Inlagt 2021-07-28 |  | Nära vatten Badplats
14.743949,57.402369,Vallsjöbaden - Parkering,Pris: 0.00 SEK - Inlagt 2025-06-04 |  | Nära vatten Badplats
14.688833,57.393707,Eksjöhovgårds Slottsruin - Parkering,Pris: 0.00 SEK - Inlagt 2011-06-27 | TC | Nära vatten Badplats
14.982651,58.032915,Parkvägen - Parkering,Pris: Saknas |  | Badanläggning
14.973056,58.034444,Västra Vägen - Parkering,Pris: 0.00 SEK - Inlagt 2024-10-21 |  | Centrumnära Badanläggning
14.9875,58.040278,Sommenforum - Parkering,Pris: 0.00 SEK - Inlagt 2024-10-21 |  | Nära vatten
14.952135,58.032526,Höganloft - Rastplats,Pris: 0.00 SEK - Inlagt 2021-02-11 | Vatten Kassettömning WC HCP Sopor | Sevärdhet Tankställe
14.1185,57.530722,Stödstorp - Friplats,Pris: Saknas |  | Naturnära
14.100358,57.449249,Götaström - Rastplats,Pris: 0.00 SEK - Inlagt 2012-04-18 | Kassettömning Markbrunn Sopor | Badplats Restaurang Tankställe Golfbana
14.098486,57.350363,Klevshult - Rastplats,Pris: 0.00 SEK - Inlagt 2006-12-02 | WC HCP Sopor | Restaurang Tankställe
15.251667,57.430833,Aspö Friluftsområde - Parkering,Pris: 0.00 SEK - Inlagt 2019-06-24 | TC | Nära vatten Badplats
15.144546,57.236555,Boskvarnasjön - Rastplats,Pris: 0.00 SEK - Inlagt 2005-03-20 | WC HCP Sopor | Nära vatten Badplats
15.0525,57.449712,Vetlanda - Rastplats,Pris: 0.00 SEK - Inlagt 2021-07-28 | Vatten WC HCP Sopor | Nära vatten
15.256389,57.46025,Kleva Gruva - Ställplats,Pris: Saknas |  | Lugnt och Avskilt
15.271798,57.343417,Nyefikets Ställplats - Ställplats,Pris: 170.00 SEK - Inlagt 2025-05-01 | El Vatten Kassettömning Markbrunn WC Dusch WiFi Sopor | Nära vatten Badplats Fiskeplats
15.018832,57.48474,Ekenässjön Badplats - Parkering,Pris: 0.00 SEK - Inlagt 2021-07-27 |  | Nära vatten Badplats
14.331833,56.969444,Rydaholmsbadet - Parkering,Pris: Saknas | WC Sopor | Nära vatten Badplats
14.348375,57.082449,Högakull Naturreservat - Parkering,Pris: 0.00 SEK - Inlagt 2017-04-05 | TC Sopor | Naturreservat
14.08393,57.254666,Hörle - Rastplats,Pris: 0.00 SEK - Inlagt 2005-03-20 | Kassettömning WC HCP Sopor | 
14.265139,56.887861,Fenen - Rastplats,Pris: 0.00 SEK - Inlagt 2021-07-26 | Sopor | Nära vatten
14.397627,57.259958,Svensbygd - Rastplats,Pris: 0.00 SEK - Inlagt 2021-07-28 |  | 
14.182266,57.037054,Skeda Strand - Ställplats,Pris: 220.00 SEK - Inlagt 2024-07-07 | El Vatten Kassettömning Markbrunn WC Dusch WiFi Sopor | Nära vatten Badplats Fiskeplats Lugnt och Avskilt Naturnära
16.97,57.079722,Wikegårds Semesterby - Ställplats,Pris: 390.00 SEK - Inlagt 2025-05-02 | El Kassettömning Markbrunn WC Dusch WiFi Sopor Tvättstuga | Nära vatten Badplats Vid Campingplats
16.580043,56.785422,Ekerum Resort Öland - Parkering,Pris: Saknas |  | Restaurang Golfbana
16.887456,56.956147,Kårehamn - Ställplats,Pris: 250.00 SEK - Inlagt 2025-03-09 | El Vatten Kassettömning Markbrunn WC Dusch | Nära vatten Båthamn
16.854717,57.072006,Sandvik Ställplats - Ställplats,Pris: 210.00 SEK - Inlagt 2023-07-27 | El Kassettömning Markbrunn WC Dusch WiFi Tvättstuga | Nära vatten Båthamn Restaurang
17.00789,57.326933,Byxelkroks Hamn - Ställplats,Pris: 230.00 SEK - Inlagt 2024-08-14 | El Vatten Kassettömning Markbrunn WC HCP Dusch WiFi Tvättstuga | Nära vatten Badplats Restaurang
17.036069,57.349609,Destination Byxelkrok - Ställplats,Pris: 75.00 SEK - Inlagt 2024-02-25 | Vatten Kassettömning Sopor | Nära vatten Badplats
16.711861,56.740139,Himmelsberga - Parkering,Pris: 50.00 SEK - Inlagt 2024-06-13 |  | Sevärdhet
16.566389,56.771667,Rälla Camp - Ställplats,Pris: 150.00 SEK - Inlagt 2024-09-01 | El Vatten WC HCP Dusch Sopor | Sevärdhet Restaurang
16.843889,56.819722,Kapelludden - Parkering,Pris: Saknas |  | Nära vatten
16.848889,56.968611,Djurstad Naturreservat - Parkering,Pris: 0.00 SEK - Inlagt 2010-11-11 |  | Naturreservat
16.647889,56.856611,Borglanda - Rastplats,Pris: 0.00 SEK - Inlagt 2006-12-18 | Sopor | 
16.945722,57.107917,Långerum - Rastplats,Pris: 0.00 SEK - Inlagt 2006-12-18 | WC HCP Sopor | 
16.76371,56.926155,Vannborga - Rastplats,Pris: 0.00 SEK - Inlagt 2006-12-18 | WC HCP Sopor | 
16.652694,56.863222,Solliden - Rastplats,Pris: 0.00 SEK - Inlagt 2024-07-21 | Sopor | Sevärdhet
16.582222,56.789167,Ekerum - Rastplats,Pris: 0.00 SEK - Inlagt 2006-12-18 | WC HCP Sopor | 
16.585767,56.794347,Halltorp - Rastplats,Pris: 0.00 SEK - Inlagt 2021-06-26 | Kassettömning WC HCP | 
16.710556,56.719722,Lerkaka - Rastplats,Pris: 0.00 SEK - Inlagt 2006-12-18 | WC HCP Sopor | Sevärdhet
17.074417,57.239972,Böda Hamn - Ställplats,Pris: 230.00 SEK - Inlagt 2025-08-31 | El Vatten Kassettömning Markbrunn WC HCP Dusch Sopor Tvättstuga | Nära vatten Badplats Båthamn Restaurang
16.647246,56.883477,Sunset Ställplats - Ställplats,Pris: 650.00 SEK - Inlagt 2025-09-02 | El Vatten WC Dusch Sopor | Nära vatten Centrumnära Badplats
16.944359,57.215329,Ålkistan - Korttidsparkering,Pris: 0.00 SEK - Inlagt 2026-03-17 |  | Nära vatten Badplats Fiskeplats Sevärdhet Naturnära
17.078255,57.367033,Holmvägen - Friplats,Pris: 0.00 SEK - Inlagt 2021-06-23 |  | Nära vatten Badplats Fiskeplats
16.703889,56.815278,Lindby Ställplatser - Ställplats,Pris: 100.00 SEK - Inlagt 2021-10-19 | El | Lugnt och Avskilt Naturnära
16.721111,56.879722,Köpingsvik Ställplats - Ställplats,Pris: 160.00 SEK - Inlagt 2024-07-19 | El Vatten WC Sopor | Nära vatten Centrumnära Tankställe
16.6459,56.8707,Borgholms Slott - Ställplats,Pris: 225.00 SEK - Inlagt 2026-03-16 | Kassettömning Markbrunn WC HCP Sopor | Sevärdhet
17.08669,57.348386,Nabbelunds Hamn - Ställplats,Pris: 310.00 SEK - Inlagt 2023-11-19 | El Vatten Kassettömning WC Dusch Sopor | Nära vatten Fiskeplats Båthamn Lugnt och Avskilt Naturnära
16.663097,56.868321,Borgholms Stug & Fiske - Ställplats,Pris: 200.00 SEK - Inlagt 2023-10-25 | El Vatten Kassettömning WC Dusch Sopor Tvättstuga | Fiskeplats Lugnt och Avskilt
16.734444,56.705278,Bjärby Badplats - Ställplats,Pris: 170.00 SEK - Inlagt 2025-06-27 | Vatten TC | Nära vatten Badplats
16.52727,56.756915,Stora Rör - Ställplats,Pris: 290.00 SEK - Inlagt 2022-09-22 | El Vatten WC Dusch | Nära vatten Badplats Båthamn
15.670278,56.622222,Ödevata FiskeCamp - Ställplats,Pris: 200.00 SEK - Inlagt 2021-01-01 | El Vatten WC Dusch Sopor | Badplats Fiskeplats Naturnära
15.565944,56.537667,Törestorps Camping - Campingplats,Pris: 200.00 SEK - Inlagt 2020-12-01 | El Vatten WC HCP Dusch WiFi Sopor Tvättstuga | Nära vatten Badplats Fiskeplats
15.543843,56.694872,Broakulla Ställplats & Camping - Ställplats,Pris: 180.00 SEK - Inlagt 2023-01-08 | El Vatten Kassettömning Tömningsvagn WC Dusch Sopor | Nära vatten Badplats Fiskeplats
15.395,56.545556,Häljanäs Naturcamping - Ställplats,Pris: 165.00 SEK - Inlagt 2025-07-08 | WC Dusch Sopor | Nära vatten Badplats
15.445278,56.658333,Moshults Vandrarhem - Ställplats,Pris: 195.00 SEK - Inlagt 2021-02-13 | El Kassettömning WC Dusch | Lugnt och Avskilt Vandrarhem
15.724356,57.455605,Stora Hammarsjön - Naturcamping,Pris: 80.00 SEK - Inlagt 2024-05-25 | Vatten TC | Nära vatten Badplats Fiskeplats
15.803339,57.396032,Hesjöns Naturcamping - Ställplats,Pris: 100.00 SEK - Inlagt 2025-09-20 | El HCP TC Sopor | Nära vatten Badplats Fiskeplats
15.82775,57.360611,Rosenfors - Rastplats,Pris: 0.00 SEK - Inlagt 2021-06-19 | WC HCP Sopor | 
16.10925,57.110131,Ruda - Rastplats,Pris: 0.00 SEK - Inlagt 2021-06-19 | WC Sopor | Sevärdhet
16.479723,56.776558,Revsudden Camping - Ställplats,Pris: 200.00 SEK - Inlagt 2025-06-04 | El Vatten Kassettömning Markbrunn WC HCP Dusch Sopor | Nära vatten Badplats Båthamn Vid Campingplats
16.1825,56.510556,Ekenäs Gästhamn - Ställplats,Pris: 160.00 SEK | El Vatten WC Dusch Sopor | Nära vatten Badplats Båthamn
16.37017,56.66304,Elevatorkajen - Ställplats,Pris: 30.00 SEK - Inlagt 2021-09-14 | Sopor | Nära vatten Centrumnära Badplats
16.381425,56.681272,Svinö - Ställplats,Pris: 0.00 SEK - Inlagt 2024-07-14 | Vatten Kassettömning Markbrunn WC HCP Sopor | Nära vatten Badplats
16.368333,56.666944,Bönhasen - Parkering,Pris: 20.00 SEK - Inlagt 2024-07-07 | WC | Nära vatten Centrumnära Badplats
16.079508,56.708575,Gräsmo - Rastplats,Pris: 0.00 SEK - Inlagt 2014-04-08 | WC HCP Sopor | Nära vatten
16.113473,56.580303,Väntorp - Rastplats,Pris: 0.00 SEK - Inlagt 2020-10-25 | Kassettömning WC HCP Sopor | 
16.446811,57.039628,Mönsterås Gästhamn - Ställplats,Pris: 250.00 SEK - Inlagt 2024-07-11 | El Vatten Kassettömning WC Dusch WiFi Sopor Tvättstuga | Nära vatten Båthamn
16.339117,56.968357,Skällerydsbadet - Parkering,Pris: 0.00 SEK - Inlagt 2021-06-19 | WC Sopor | Nära vatten Badplats Fiskeplats
16.256048,57.130123,Ställplats Jungnerholmarna - Ställplats,Pris: 170.00 SEK - Inlagt 2025-04-12 | El Vatten Kassettömning Markbrunn WC HCP Dusch Sopor | Nära vatten Badplats
16.440333,56.9735,Festplatsen Timmernabben - Ställplats,Pris: 220.00 SEK - Inlagt 2025-06-14 | El Vatten Kassettömning WC Dusch Sopor | Nära vatten Badplats Lugnt och Avskilt
16.405506,56.37735,Sandviks Camping - Ställplats,Pris: 215.00 SEK - Inlagt 2026-03-17 | El Vatten Kassettömning Markbrunn WC HCP Dusch Sopor Tvättstuga | Nära vatten Badplats Lugnt och Avskilt Naturnära Vid Campingplats
16.6975,56.619167,Bläsingestrand - Ställplats,Pris: 120.00 SEK - Inlagt 2024-05-10 | Kassettömning TC | Nära vatten Badplats
16.441667,56.606944,Karlevistenen - Parkering,Pris: 0.00 SEK - Inlagt 2008-07-14 | WC Sopor | Lugnt och Avskilt
16.520212,56.528021,Möckelmossen - Friplats,Pris: 0.00 SEK - Inlagt 2021-08-09 | WC TC Sopor | Naturnära
16.471382,56.65303,Färjestadens Ställplats - Ställplats,Pris: 120.00 SEK - Inlagt 2025-08-08 |  | Nära vatten Centrumnära Köpcentrum
16.429303,56.502267,Bårbyborg - Parkering,Pris: Saknas | WC | Lugnt och Avskilt
16.506922,56.529966,Gynge Naturreservat - Friplats,Pris: 0.00 SEK - Inlagt 2020-08-11 |  | Naturnära Naturreservat
16.531264,56.316923,Gräsgårds Hamn - Ställplats,Pris: 150.00 SEK - Inlagt 2023-09-14 | El Vatten WC TC Dusch | Nära vatten Fiskeplats Lugnt och Avskilt
16.445529,56.536403,Resmo - Rastplats,Pris: 0.00 SEK - Inlagt 2020-07-25 | Kassettömning WC HCP Sopor | 
16.537472,56.7255,Glömminge - Rastplats,Pris: 0.00 SEK - Inlagt 2006-12-18 | Kassettömning WC HCP Sopor | 
16.52325,56.70127,Idehultet - Rastplats,Pris: 0.00 SEK - Inlagt 2006-12-18 | WC HCP Sopor | 
16.63979,56.60159,Eksgården - Rastplats,Pris: 0.00 SEK - Inlagt 2006-12-18 | WC HCP Sopor | 
16.488056,56.616389,Eriksöre - Rastplats,Pris: 0.00 SEK - Inlagt 2006-12-18 | WC HCP Sopor | 
16.411778,56.342472,Alunbruket - Rastplats,Pris: 0.00 SEK - Inlagt 2006-12-18 | WC HCP | 
16.406222,56.320417,Albrunna - Rastplats,Pris: 0.00 SEK - Inlagt 2021-08-08 | Kassettömning WC HCP Sopor | 
16.396488,56.268501,Grönhögen Ställplats - Ställplats,Pris: 300.00 SEK - Inlagt 2025-08-06 | El Vatten Kassettömning Markbrunn WC Dusch Sopor Tvättstuga | Nära vatten Badplats Båthamn
16.40652,56.283758,Ventlinge - Ställplats,Pris: 200.00 SEK - Inlagt 2023-11-12 | El Vatten Kassettömning Markbrunn WC Dusch WiFi Tvättstuga | Nära vatten
16.617184,56.503135,Stenåsa Stugor och Camping SCR - Ställplats,Pris: 370.00 SEK - Inlagt 2023-11-12 | El Vatten Kassettömning Markbrunn WC Dusch WiFi Sopor | Nära vatten Badplats Fiskeplats
16.428611,56.459167,Allégården Kastlösa - Campingplats,Pris: 460.00 SEK - Inlagt 2023-11-12 | El Vatten Kassettömning Markbrunn WC Dusch Sopor | Sevärdhet Lugnt och Avskilt Badanläggning Vandrarhem
16.162501,56.929986,Rugstorps Lantgård - Ställplats,Pris: 150.00 SEK - Inlagt 2020-03-24 | El Vatten WC Dusch | Lantgård
15.674341,56.874588,Gullaskruv - Ställplats,Pris: 0.00 SEK - Inlagt 2021-06-29 | TC | 
15.975477,56.729404,Glasporten - Rastplats,Pris: 0.00 SEK - Inlagt 2021-06-26 | WC HCP Sopor | Restaurang
15.704183,56.845802,Orranäsasjön - Rastplats,Pris: 0.00 SEK - Inlagt 2021-06-29 | Kassettömning WC HCP Sopor | Nära vatten
15.569167,56.914444,Målerås Vandrarhem B&B - Ställplats,Pris: 100.00 SEK - Inlagt 2021-03-25 | El Vatten WC Dusch Sopor | Vandrarhem
15.907778,56.939444,Alsterbro Camping - Ställplats,Pris: 220.00 SEK - Inlagt 2021-07-19 | El Vatten Kassettömning Markbrunn WC Dusch Sopor Tvättstuga | Nära vatten Badplats Fiskeplats Restaurang
16.45344,57.26589,Oskarshamns Gästhamn - Ställplats,Pris: 380.00 SEK - Inlagt 2025-06-08 | El Vatten Kassettömning Markbrunn WC HCP Dusch WiFi Sopor Tvättstuga | Nära vatten Centrumnära Båthamn
16.48,57.259444,Liljeholmens - Parkering,Pris: 200.00 SEK - Inlagt 2022-07-15 |  | Nära vatten Båthamn
16.482422,57.127431,Emån - Rastplats,Pris: 0.00 SEK - Inlagt 2005-03-20 | Kassettömning WC HCP Sopor | Nära vatten
16.013528,57.258889,Försjön - Rastplats,Pris: 0.00 SEK - Inlagt 2021-07-06 | Kassettömning WC HCP Sopor | Nära vatten
16.083555,57.261426,Maskincentrum - Ställplats,Pris: 100.00 SEK - Inlagt 2021-10-09 | El Vatten Kassettömning Markbrunn | Naturnära Husbilstillbehör
16.554472,57.372583,Vasakajen - Ställplats,Pris: 200.00 SEK - Inlagt 2024-07-10 | El Vatten WC Sopor | Nära vatten Båthamn
16.09032,56.391139,Dalskärs Camping - Ställplats,Pris: 210.00 SEK - Inlagt 2021-06-27 | El Vatten Kassettömning Markbrunn WC HCP Dusch Sopor Tvättstuga | Nära vatten Badplats Båthamn Lugnt och Avskilt Restaurang Vid Campingplats
16.089067,56.449369,Möre Golfklubb - Ställplats,Pris: 300.00 SEK - Inlagt 2019-08-30 | El Vatten WC Dusch | Golfbana
15.700166,57.658661,Försjön - Friplats,Pris: 0.00 SEK - Inlagt 2020-06-21 | TC | Nära vatten Fiskeplats
15.667889,57.614417,Bullerbyn - Parkering,Pris: 100.00 SEK - Inlagt 2024-07-30 | Sopor | Sevärdhet
15.835194,57.650972,Åkebo - Rastplats,Pris: 0.00 SEK - Inlagt 2021-06-16 | Kassettömning WC HCP Sopor | 
16.103611,57.576944,Ställplats Tuna - Ställplats,Pris: 150.00 SEK - Inlagt 2020-10-16 | El Vatten Kassettömning Markbrunn WC Dusch Sopor | Centrumnära Sevärdhet
16.644791,57.757364,Västerviks Hamn - Parkering,Pris: Okänt |  | Nära vatten Centrumnära
16.412625,57.901017,Varvet Gamleby - Ställplats,Pris: 195.00 SEK - Inlagt 2023-07-24 | Sopor | Nära vatten Badplats Båthamn
16.483194,57.979583,Tindered - Rastplats,Pris: 0.00 SEK - Inlagt 2005-03-20 | WC HCP Sopor | Nära vatten Restaurang Tankställe
16.461229,57.303186,Glabo - Rastplats,Pris: 0.00 SEK - Inlagt 2006-12-18 | TC Sopor | 
16.459907,57.625144,Lebo - Kvarnsjön - Parkering,Pris: 0.00 SEK - Inlagt 2006-12-18 |  | 
16.295861,57.697417,Långsjön - Rastplats,Pris: 0.00 SEK - Inlagt 2010-06-30 | WC HCP Sopor | Nära vatten Badplats Restaurang
16.445057,57.661889,Botorpström - Rastplats,Pris: 0.00 SEK - Inlagt 2016-07-17 | Kassettömning WC HCP Sopor | 
16.529407,57.590194,Blankaholms Gästhamn - Ställplats,Pris: 225.00 SEK - Inlagt 2025-10-23 | El Vatten Kassettömning Markbrunn WC Dusch Sopor | Nära vatten Båthamn
14.595278,56.932222,Hanaslöv - Ställplats,Pris: 175.00 SEK - Inlagt 2025-10-31 | El Vatten Kassettömning Markbrunn WC Sopor | Lugnt och Avskilt Naturnära Vintersportanläggning
14.439759,56.904878,Moasjön - Rastplats,Pris: 0.00 SEK - Inlagt 2021-07-26 | Kassettömning WC HCP Sopor | Nära vatten
14.587139,56.920473,Spånen - Parkering,Pris: 0.00 SEK - Inlagt 2021-02-13 |  | Nära vatten
14.522222,56.876111,Änganäs - Rastplats,Pris: 0.00 SEK - Inlagt 2015-08-09 | WC | 
15.372628,56.669189,Skruvs Vildmarkscamping - Campingplats,Pris: 180.00 SEK - Inlagt 2025-06-21 | El Vatten Kassettömning Tömningsvagn WC HCP Dusch Sopor | Badplats Fiskeplats
15.39,56.850833,Kosta Outlet - Parkering,Pris: 0.00 SEK - Inlagt 2020-08-20 | WC Sopor | Sevärdhet Köpcentrum
15.22354,56.78327,Strömbergshyttan - Parkering,Pris: 0.00 SEK - Inlagt 2014-05-16 | Sopor | Köpcentrum
15.231222,56.781806,Hyllsjön - Rastplats,Pris: 0.00 SEK - Inlagt 2006-07-28 | WC HCP Sopor | Nära vatten Badplats
14.013333,56.979167,Dörarp - Parkering,Pris: 0.00 SEK - Inlagt 2012-07-16 |  | 
13.9065,56.813722,Ljungbystopp - Parkering,Pris: 0.00 SEK - Inlagt 2008-12-07 | WiFi | Restaurang Tankställe
13.837806,56.699722,Hamneda - Parkering,Pris: Saknas |  | Restaurang
13.96975,56.918583,Laganland - Parkering,Pris: Saknas | WC | 
13.595417,56.751972,Boasjön - Rastplats,Pris: 0.00 SEK - Inlagt 2021-07-25 | WC HCP Sopor | Nära vatten Badplats
13.761202,56.616542,Sjöboda - Rastplats,Pris: 0.00 SEK - Inlagt 2005-03-20 | Kassettömning WC HCP Sopor | Nära vatten
13.672885,56.509828,Axhult - Friplats,Pris: 0.00 SEK - Inlagt 2005-05-10 | WC HCP Sopor | Nära vatten
14.666902,56.528882,Toftahult Gård - Ställplats,Pris: 250.00 SEK - Inlagt 2024-01-13 | El WC Dusch WiFi Sopor Tvättstuga | Lugnt och Avskilt Lantgård
15.309056,56.49875,Djupasjöns Naturcamping - Campingplats,Pris: 150.00 SEK - Inlagt 2021-09-24 | Kassettömning WC Dusch Sopor | Nära vatten Badplats Lugnt och Avskilt Naturnära
14.796111,56.585556,Lunnabacken - Parkering,Pris: Saknas | WC Sopor | Sevärdhet
14.991056,56.515583,Kungastenarna - Rastplats,Pris: 0.00 SEK - Inlagt 2017-01-08 | WC HCP Sopor | Nära vatten
14.979139,56.441861,Bräkneån - Rastplats,Pris: 0.00 SEK - Inlagt 2006-07-28 | TC | 
15.143749,56.505851,Sandsjön - Friplats,Pris: 0.00 SEK - Inlagt 2006-07-28 | WC TC | Nära vatten Badplats Fiskeplats
14.664917,56.401222,Fridafors Fritidscenter - Ställplats,Pris: 100.00 SEK - Inlagt 2024-07-02 | El Vatten HCP Dusch | Nära vatten Eventcenter
15.148103,56.511341,Näsets Naturcamping - Naturcamping,Pris: 120.00 SEK - Inlagt 2020-04-22 | Vatten Kassettömning WC Sopor | Nära vatten Badplats Lugnt och Avskilt
15.208,57.0466,Granhult - Parkering,Pris: Saknas |  | Sevärdhet
15.245111,57.120028,Sjöatorpasjön - Rastplats,Pris: 0.00 SEK - Inlagt 2006-07-28 | Sopor | Nära vatten
15.361224,56.923029,Sandsjön - Rastplats,Pris: 0.00 SEK - Inlagt 2021-06-28 | Kassettömning WC HCP Sopor | Nära vatten
14.82045,56.995162,Ekna Naturcamping - Naturcamping,Pris: 200.00 SEK - Inlagt 2021-02-20 | Vatten Kassettömning Markbrunn WC | Nära vatten Badplats Fiskeplats Lugnt och Avskilt Naturnära
14.811711,57.086061,Tolgs Naturcamping - Naturcamping,Pris: 150.00 SEK - Inlagt 2021-02-20 | Vatten WC Sopor | Nära vatten Badplats
14.595833,57.164167,Lammhult - Friplats,Pris: 0.00 SEK - Inlagt 2015-12-05 |  | Nära vatten Badplats Badanläggning
14.824167,56.919444,Evedal - Parkering,Pris: 0.00 SEK - Inlagt 2022-04-12 | WC Sopor | Nära vatten Badplats
14.608861,57.137111,Fräjen - Rastplats,Pris: 0.00 SEK - Inlagt 2006-07-28 | WC HCP Sopor | Nära vatten
14.981383,56.977926,Innaren - Rastplats,Pris: 0.00 SEK - Inlagt 2006-07-28 | Kassettömning WC HCP Sopor | Nära vatten Restaurang
14.612778,57.177222,Allgunnen - Parkering,Pris: 0.00 SEK - Inlagt 2015-12-05 |  | Nära vatten Badplats
15.052291,57.066207,Braås Camping - Ställplats,Pris: 225.00 SEK - Inlagt 2023-07-29 | El Vatten Kassettömning WC Dusch Tvättstuga | Nära vatten Badplats
14.903889,56.755833,Sikabackens Badplats - Ställplats,Pris: 100.00 SEK - Inlagt 2024-08-14 | El Vatten WC Dusch | Nära vatten Badplats Fiskeplats
14.221721,56.638837,Diö - Parkering,Pris: Saknas | WC | Nära vatten
14.224444,56.645556,Diö Badplats - Parkering,Pris: Saknas | WC | Nära vatten
14.201267,56.620112,Linnés Råshult - Parkering,Pris: Saknas | WC | Sevärdhet
14.002874,56.600089,Fredriksfors - Parkering,Pris: Saknas | TC Sopor | Lugnt och Avskilt Naturnära
14.210833,56.638889,Åsens Båthamn - Parkering,Pris: 0.00 SEK - Inlagt 2015-05-11 |  | Nära vatten
14.580755,56.448601,Siggamåla Skvaltkvarn - Parkering,Pris: 0.00 SEK - Inlagt 2011-12-08 |  | Naturnära
14.211491,56.616476,Såganässjön - Friplats,Pris: 0.00 SEK - Inlagt 2006-12-04 |  | Nära vatten
14.067022,56.651408,Björkö Oshult - Ställplats,Pris: Saknas | TC Sopor | Nära vatten
18.037778,65.844722,Mellanström - Parkering,Pris: 0.00 SEK - Inlagt 2015-12-02 | TC Sopor | Fiskeplats
16.334306,66.548861,Silvervägen Polcirkeln - Rastplats,Pris: 0.00 SEK - Inlagt 2005-03-22 | Kassettömning WC HCP Sopor | Nära vatten Tankställe
15.989293,66.741937,Guoledisjávrre - Rastplats,Pris: 0.00 SEK - Inlagt 2006-12-07 | TC Sopor | 
19.4675,65.886361,Gustavssons Camping Udden - Friplats,Pris: 0.00 SEK - Inlagt 2023-09-07 |  | Badplats Fiskeplats
18.714917,65.712667,Långudden - Friplats,Pris: 0.00 SEK - Inlagt 2006-12-12 |  | 
19.277471,66.023416,Trollselet Nord - Parkering,Pris: Saknas |  | Nära vatten Fiskeplats
18.719111,65.711583,Långträsket - Parkering,Pris: Saknas | Sopor | Nära vatten Badplats
18.869609,65.664417,Långträskälven - Parkering,Pris: 0.00 SEK | Sopor | Nära vatten
19.51933,65.95204,Ljusselforsen - Rastplats,Pris: 0.00 SEK - Inlagt 2025-05-30 | Sopor | Fiskeplats
21.756944,65.7525,Bodens Golfklubb - Ställplats,Pris: 150.00 SEK - Inlagt 2022-07-26 | El WC Dusch | Restaurang Golfbana
20.898936,67.10564,Stenbron - Rastplats,Pris: 0.00 SEK - Inlagt 2005-03-23 | Kassettömning WC HCP Sopor | 
24.142222,65.836667,River Motell och Camping - Campingplats,Pris: 380.00 SEK - Inlagt 2022-07-01 | El Vatten Kassettömning Markbrunn WC HCP Dusch WiFi Sopor | Centrumnära Badplats
24.03781,65.963218,Kukkolaforsen - Parkering,Pris: Saknas | WC | Nära vatten Badplats Fiskeplats
24.136667,65.843611,IKEA Haparanda - Parkering,Pris: 0.00 SEK - Inlagt 2019-08-02 | Kassettömning Sopor | Köpcentrum
23.818467,65.753966,Seskarö Färjeläge - Friplats,Pris: 0.00 SEK - Inlagt 2022-05-03 |  | Nära vatten Lugnt och Avskilt Naturnära
23.933639,65.810583,Keräsjoki - Rastplats,Pris: 0.00 SEK - Inlagt 2005-03-22 | Kassettömning WC HCP Sopor | Nära vatten
23.830365,65.817585,Aavajoki - Rastplats,Pris: 0.00 SEK - Inlagt 2005-03-22 | Kassettömning WC HCP Sopor | 
24.057167,65.948111,Kukkolaforsens Naturrastplats - Rastplats,Pris: 0.00 SEK - Inlagt 2022-04-30 | TC Sopor | Nära vatten
23.903889,65.771944,Haparanda Hamn - Ställplats,Pris: 200.00 SEK - Inlagt 2024-08-23 | El Vatten Tömningsvagn WC HCP Dusch Sopor | Nära vatten Båthamn
19.880722,66.817528,Ligga - Parkering,Pris: Saknas |  | Fiskeplats
19.805224,66.970707,Porjus Damm - Friplats,Pris: 0.00 SEK - Inlagt 2006-12-02 |  | Nära vatten Båthamn
19.824945,66.642988,Laponia - Parkering,Pris: Saknas | Sopor | Nära vatten
19.809166,66.957123,Porjus - Rastplats,Pris: 0.00 SEK - Inlagt 2005-03-22 | Kassettömning WC HCP Sopor | Nära vatten Restaurang
19.763722,66.550583,Polcirkeln - Rastplats,Pris: 0.00 SEK - Inlagt 2005-03-22 | Vatten Kassettömning WC HCP Sopor | Nära vatten Sevärdhet Naturnära Restaurang
19.6828,66.426243,Tårrajaur - Rastplats,Pris: 0.00 SEK - Inlagt 2025-08-21 |  | Nära vatten
23.42,65.8225,Lappbäckens Bygdegård - Parkering,Pris: 100.00 SEK - Inlagt 2014-12-09 | El Vatten | Badplats
22.656333,65.907361,Töre - Rastplats,Pris: 0.00 SEK - Inlagt 2005-03-22 | Kassettömning WC HCP Sopor | 
22.480667,68.44075,Sandlövs Camping - Campingplats,Pris: 250.00 SEK - Inlagt 2025-08-26 | El Vatten Kassettömning Markbrunn WC Sopor | Centrumnära
20.59625,67.851139,Jukkasjärvi Icehotel - Parkering,Pris: Saknas | WC | Nära vatten Sevärdhet
22.479472,68.441528,Karesuando Kyrka - Parkering,Pris: 0.00 SEK - Inlagt 2007-06-23 |  | 
18.256944,68.430833,Vassijaure - Parkering,Pris: 0.00 SEK - Inlagt 2012-07-13 |  | Fiskeplats
19.622528,67.829944,Laukkuluspa - Parkering,Pris: Saknas | WC Sopor | Fiskeplats
20.258056,67.846111,Hotell E10 - Ställplats,Pris: 180.00 SEK - Inlagt 2023-11-02 | El Vatten Kassettömning WC Dusch Tvättstuga | Restaurang Köpcentrum
19.82225,67.803944,Puoltsa - Parkering,Pris: Saknas | WC Sopor | Fiskeplats
19.263306,67.868389,Pirttivuopio - Parkering,Pris: Saknas | WC Sopor | 
19.058472,67.864306,Vistasdalen - Parkering,Pris: 0.00 SEK - Inlagt 2008-06-12 | WC Sopor | 
21.629972,67.689333,Torneälven Vittangi - Friplats,Pris: 0.00 SEK - Inlagt 2010-07-13 |  | Nära vatten Fiskeplats
21.1205,67.490528,Lappeasuanto Rastplats - Rastplats,Pris: 0.00 SEK - Inlagt 2005-03-13 | El Kassettömning WC HCP Sopor | Nära vatten Restaurang
21.406556,67.669278,Suptallen - Rastplats,Pris: 0.00 SEK - Inlagt 2014-07-18 | Kassettömning WC HCP Sopor | Sevärdhet
21.782202,68.154267,Ryssäjoki Naturrastplats - Rastplats,Pris: 0.00 SEK - Inlagt 2021-05-20 |  | Nära vatten Naturnära
19.231605,68.302665,Pessisjokka RP - Rastplats,Pris: 0.00 SEK - Inlagt 2023-12-30 | Kassettömning WC HCP Sopor | Nära vatten Badplats
19.922472,67.991306,Naturrastplats Rautas Östra - Rastplats,Pris: 0.00 SEK - Inlagt 2008-06-10 | Kassettömning WC Sopor | Nära vatten
19.708556,68.221861,Torneträsk - Rastplats,Pris: 0.00 SEK - Inlagt 2008-06-10 | Kassettömning WC Sopor | 
19.7775,68.154028,Bergfors Naturrastplats - Rastplats,Pris: 0.00 SEK - Inlagt 2008-06-10 | Kassettömning WC Sopor | 
19.487833,68.258472,Nuissajokk Naturrastplats - Rastplats,Pris: 0.00 SEK - Inlagt 2008-06-10 | Kassettömning WC Sopor | 
18.670972,68.432056,Tornehamn - Rastplats,Pris: 0.00 SEK - Inlagt 2014-01-18 | Kassettömning WC Sopor | Nära vatten
20.525278,67.855778,Naturrastplats Laxforsen - Rastplats,Pris: 0.00 SEK - Inlagt 2025-08-17 | Kassettömning TC Sopor | Fiskeplats
21.697543,68.091532,Sopperogården - Ställplats,Pris: 100.00 SEK - Inlagt 2021-03-25 | El Sopor | Lugnt och Avskilt Naturnära Vandrarhem
22.126569,65.584058,Gültzau Udde - Parkering,Pris: 0.00 SEK - Inlagt 2023-10-21 |  | Nära vatten Centrumnära Badplats Båthamn
22.369444,65.840833,Kängsön - Naturcamping,Pris: 100.00 SEK - Inlagt 2021-11-07 | Kassettömning TC | Nära vatten Badplats Fiskeplats Båthamn Lugnt och Avskilt
23.041167,66.849778,Korpilombolo - Ställplats,Pris: 100.00 SEK - Inlagt 2009-12-09 | El Vatten WC Dusch | Centrumnära
23.465278,67.200556,Norra Kengis - Ställplats,Pris: 200.00 SEK - Inlagt 2023-07-14 | WC Dusch | Naturnära
21.482815,65.292492,Furunäsets Båthamn - Ställplats,Pris: 150.00 SEK - Inlagt 2016-07-04 | El | Nära vatten Båthamn
21.551944,65.423583,Harrbäcken - Rastplats,Pris: 0.00 SEK - Inlagt 2005-03-22 | Kassettömning WC HCP Sopor | Nära vatten
21.50827,65.143967,Jävre Ställplats - Ställplats,Pris: 250.00 SEK - Inlagt 2023-06-30 | El Vatten Kassettömning Markbrunn WC HCP Sopor | Nära vatten Sevärdhet Båthamn
21.468583,65.314177,Västra Kajen Camping och Gästhamn - Campingplats,Pris: 420.00 SEK - Inlagt 2023-06-13 | El Vatten Kassettömning Markbrunn WC HCP Dusch WiFi Sopor Tvättstuga | Nära vatten Centrumnära Sevärdhet Båthamn
20.249142,65.753255,Lill-Laver - Parkering,Pris: 0.00 SEK - Inlagt 2012-12-06 |  | Nära vatten Badplats Fiskeplats
20.768611,65.776667,Fällfors - Parkering,Pris: 0.00 SEK - Inlagt 2015-08-28 | TC | Nära vatten
20.347222,65.677778,Nattberg - Naturcamping,Pris: 0.00 SEK - Inlagt 2023-05-28 | TC Sopor | Nära vatten Fiskeplats Lugnt och Avskilt Naturnära
22.512124,66.459082,Bönälvens Naturrastplats - Parkering,Pris: 0.00 SEK - Inlagt 2011-08-12 | TC | Nära vatten Fiskeplats
22.183639,66.650889,Lansjärv - Rastplats,Pris: 0.00 SEK - Inlagt 2005-03-22 | Kassettömning WC HCP Sopor | Restaurang Tankställe
22.332333,66.551083,Polcirkelcentret - Rastplats,Pris: 0.00 SEK - Inlagt 2006-12-02 | WC HCP Sopor | Restaurang
22.840278,66.37,Raabgården - Ställplats,Pris: 170.00 SEK - Inlagt 2014-06-22 | El Vatten WC Dusch Tvättstuga | Fiskeplats
23.781824,66.532602,Kattilakoski - Rastplats,Pris: 0.00 SEK - Inlagt 2020-01-18 | Vatten Kassettömning WC HCP Sopor | Nära vatten
14.513283,56.11127,Levrasjö - Rastplats,Pris: 0.00 SEK - Inlagt 2005-03-21 | WC HCP Sopor | Nära vatten Sevärdhet
14.496361,56.063611,Skåneporten Bromölla - Ställplats,Pris: 0.00 SEK - Inlagt 2021-10-19 | Vatten Kassettömning Markbrunn WC Sopor | Restaurang Tankställe
14.521025,56.143948,Ställplats Axeltorp - Ställplats,Pris: 200.00 SEK - Inlagt 2024-09-25 | El Vatten WiFi Sopor | Badplats Fiskeplats Lugnt och Avskilt Naturnära
13.087194,55.643395,Burlövsbadet - Parkering,Pris: Saknas |  | Badplats
12.917111,56.438111,Båstad Husbilscamping - Ställplats,Pris: 310.00 SEK - Inlagt 2024-02-01 | El Vatten Kassettömning Markbrunn WC Dusch WiFi Sopor Tvättstuga | Lugnt och Avskilt Vid Campingplats
12.805285,56.438152,Italienska Vägen - Rastplats,Pris: 0.00 SEK - Inlagt 2005-12-04 | WC HCP | 
12.947222,56.412361,Kungsrasten - Rastplats,Pris: 0.00 SEK - Inlagt 2005-04-29 | WC HCP Sopor | Restaurang
12.741667,56.352778,Vistorps Hamn - Ställplats,Pris: 150.00 SEK - Inlagt 2021-06-29 | Vatten | Badplats Fiskeplats Lugnt och Avskilt
13.5,55.791944,Rövarekulan - Parkering,Pris: 0.00 SEK - Inlagt 2018-11-27 | TC Sopor | Naturreservat
13.318056,55.7725,Gårdstånga - Rastplats,Pris: 0.00 SEK - Inlagt 2013-08-07 | WC HCP Sopor | Restaurang Tankställe
13.385758,55.937455,Hasslebro - Rastplats,Pris: 0.00 SEK - Inlagt 2013-12-28 | WC HCP Sopor | 
12.759403,55.969843,Långövägen - Parkering,Pris: Saknas |  | Badplats
12.605834,56.116633,Domstens Båtklubb - Ställplats,Pris: 300.00 SEK - Inlagt 2025-08-13 | El Vatten Kassettömning WC Dusch WiFi Sopor | Badplats Fiskeplats Sevärdhet Båthamn
12.639444,56.129722,Beredskapsmuseet - Parkering,Pris: 0.00 SEK - Inlagt 2008-12-03 |  | Sevärdhet
12.668056,56.072778,Tinkarp Nedre - Parkering,Pris: Saknas | WC | Badplats
12.774722,56.190556,Ställplats Rögle - Ställplats,Pris: 100.00 SEK - Inlagt 2021-04-04 | El Vatten | Lugnt och Avskilt Naturnära
12.64536,56.09112,Larödbaden - Parkering,Pris: 0.00 SEK - Inlagt 2021-08-21 | WC | Badplats
12.749222,55.990111,Råå Ängar - Ställplats,Pris: 190.00 SEK - Inlagt 2025-06-09 | El Vatten WC HCP Sopor | Badplats Båthamn
12.685,56.0477,Marina Norra Hamnen - Ställplats,Pris: 375.00 SEK - Inlagt 2025-04-14 | El Vatten Kassettömning WC Dusch Tvättstuga | Centrumnära Båthamn
13.68226,56.122777,Tostarpsgården - Campingplats,Pris: 380.00 SEK - Inlagt 2026-02-15 | El Vatten Kassettömning Markbrunn WC Dusch Sopor | Nära vatten Badplats Fiskeplats Naturnära
13.665479,56.352395,Vittsjö Camping - Ställplats,Pris: 200.00 SEK - Inlagt 2023-07-04 | El Vatten Kassettömning Markbrunn WC HCP Dusch Sopor Tvättstuga | Badplats Fiskeplats Vid Campingplats Golfbana
13.705278,56.16,Mölleröd Finjasjön - Parkering,Pris: Saknas | TC | Nära vatten Sevärdhet Lugnt och Avskilt
13.683611,56.114722,Hovslingan Finjasjön - Parkering,Pris: Saknas | TC Sopor | Lugnt och Avskilt
13.734167,56.119167,Björkviken Finjasjön - Parkering,Pris: Saknas | WC | Badplats
13.670278,56.138611,Mjölkalånga Badplats - Parkering,Pris: 0.00 SEK - Inlagt 2015-04-21 |  | Badplats Lugnt och Avskilt
13.577778,56.163889,FCT Köpcenter - Parkering,Pris: 0.00 SEK - Inlagt 2013-05-15 | Vatten WC | Centrumnära Köpcentrum
13.769722,56.159444,Röingegatan - Parkering,Pris: Saknas |  | Centrumnära
13.716111,56.106389,Hovdala Slott - Parkering,Pris: 0.00 SEK - Inlagt 2015-04-22 |  | Sevärdhet
13.73599,56.062872,Norra Mellby - Rastplats,Pris: 0.00 SEK - Inlagt 2005-03-20 | WC HCP Sopor | 
13.818917,56.170639,Stoby - Rastplats,Pris: 0.00 SEK - Inlagt 2005-12-04 | WC HCP Sopor | Restaurang Tankställe
13.897556,56.137389,Flädergården - Ställplats,Pris: 170.00 SEK - Inlagt 2025-09-28 | El Vatten | Sevärdhet Lugnt och Avskilt Naturnära Lantgård
13.671111,56.129444,Skyrup Golf & Hotell - Ställplats,Pris: 200.00 SEK - Inlagt 2021-08-31 | El Vatten WC Dusch Sopor | Naturnära Restaurang Golfbana
13.752222,56.15,Hässlegårdens GK - Ställplats,Pris: 100.00 SEK - Inlagt 2019-09-12 | El Vatten WC Dusch Sopor | Restaurang Golfbana
12.660563,56.252764,Svanshalls Hamn - Ställplats,Pris: 160.00 SEK - Inlagt 2020-08-01 | El Vatten Kassettömning Markbrunn WC | Nära vatten Badplats Fiskeplats Båthamn
12.549092,56.21533,Margereteberg Strand - Ställplats,Pris: 0.00 SEK - Inlagt 2024-09-23 | Vatten WC HCP Dusch Sopor | Badplats
12.586645,56.141733,Viken - Rastplats,Pris: 0.00 SEK - Inlagt 2015-08-28 | Sopor | 
12.548207,56.199782,Höganäs Småbåtshamn - Ställplats,Pris: 200.00 SEK - Inlagt 2024-07-16 | El Vatten Kassettömning WC Dusch WiFi Sopor | Centrumnära Badplats Båthamn Restaurang
12.655763,56.237211,Bläsinge Gård - Campingplats,Pris: 280.00 SEK - Inlagt 2021-03-22 | El Vatten Kassettömning Markbrunn WC HCP Dusch WiFi Sopor | 
13.730722,55.901194,Ekerödsrasten - Ställplats,Pris: 200.00 SEK - Inlagt 2025-06-09 | El Vatten Kassettömning Markbrunn WC HCP Sopor | Restaurang
13.605278,55.966944,Tollerupssjön - Parkering,Pris: 180.00 SEK - Inlagt 2019-09-12 | TC | Fiskeplats
13.469655,55.940302,Rovelyckans Trädgård och Ställplats - Ställplats,Pris: 180.00 SEK - Inlagt 2023-08-07 | El Vatten Kassettömning Markbrunn Sopor | Lugnt och Avskilt Naturnära
13.107777,56.206296,Mölletofta - Rastplats,Pris: 0.00 SEK - Inlagt 2005-03-20 | Kassettömning WC HCP Sopor | Restaurang Tankställe
13.165472,56.120528,Forsmöllan - Rastplats,Pris: 0.00 SEK - Inlagt 2024-10-15 | Kassettömning WC HCP Sopor | 
13.133056,56.1325,Byggmästaregränden - Parkering,Pris: 0.00 SEK - Inlagt 2012-08-14 |  | Centrumnära Badanläggning
14.445281,55.996839,Tosteberga Hamn - Ställplats,Pris: 250.00 SEK - Inlagt 2023-05-16 | El Vatten Kassettömning WC HCP Dusch Sopor | Nära vatten Båthamn Lugnt och Avskilt
14.318325,56.205287,Lerjevallen - Friplats,Pris: Saknas |  | Nära vatten
14.145282,56.027817,Ställplats Naturum - Ställplats,Pris: 100.00 SEK - Inlagt 2025-03-19 | WC HCP Sopor | Centrumnära Naturreservat
14.1925,56.038889,Nosaby - Parkering,Pris: 0.00 SEK - Inlagt 2012-05-14 |  | Lugnt och Avskilt Naturnära
13.972778,55.919167,Stackedala - Parkering,Pris: 0.00 SEK |  | Naturnära
14.214167,56.078333,Balsby Sjöväg - Parkering,Pris: 0.00 SEK - Inlagt 2015-04-20 | WC HCP | Badplats
14.359722,56.073611,Kjugekull - Parkering,Pris: 0.00 SEK - Inlagt 2015-07-23 |  | Naturnära
14.166667,56.044722,Kristianstad Ishall - Parkering,Pris: 0.00 SEK - Inlagt 2015-08-30 |  | 
14.133889,55.758889,Drakamöllan - Parkering,Pris: 0.00 SEK - Inlagt 2018-09-12 | TC Sopor | Naturreservat
14.26825,56.03475,Fjälkinge - Rastplats,Pris: 0.00 SEK - Inlagt 2006-07-28 | WC HCP Sopor | Restaurang Tankställe
12.947778,55.823889,Järavallen Strövområde - Korttidsparkering,Pris: 0.00 SEK - Inlagt 2023-04-15 | Sopor | Badplats
12.939278,55.822333,Pyrolavägen - Parkering,Pris: Saknas |  | 
12.819083,55.940488,Glumslöv - Rastplats,Pris: 0.00 SEK - Inlagt 2005-03-21 | WC HCP Sopor | Restaurang Tankställe
12.772222,55.943889,Örenäs Gånggrift - Korttidsparkering,Pris: 0.00 SEK - Inlagt 2019-09-11 |  | Badplats Fiskeplats Sevärdhet
12.849167,55.861667,Lundåkrahamnen - Ställplats,Pris: 295.00 SEK - Inlagt 2025-05-07 | El Vatten Kassettömning Markbrunn WC HCP Dusch Sopor Tvättstuga | Sevärdhet Båthamn Lugnt och Avskilt Restaurang
13.059722,55.69,Lomma Camping och Resort - Campingplats,Pris: 390.00 SEK - Inlagt 2021-03-02 | El Vatten Kassettömning Markbrunn WC Dusch Sopor | Nära vatten Badplats Fiskeplats Naturnära
13.06117,55.674504,Lomma Småbåtshamn - Parkering,Pris: Saknas | Vatten WC Dusch | Båthamn
13.050278,55.698333,Habo Ljung - Korttidsparkering,Pris: 0.00 SEK - Inlagt 2023-08-22 | WC | Badplats
13.058889,55.659722,Öresundsparken - Korttidsparkering,Pris: 0.00 SEK - Inlagt 2024-07-21 | Vatten WC HCP Dusch Sopor | Naturreservat
13.000833,55.728056,Bjärreds Naturreservat - Parkering,Pris: 0.00 SEK - Inlagt 2017-10-01 | WC Sopor | Naturreservat
13.206111,55.716944,Smörlyckan Lund - Parkering,Pris: 45.00 SEK - Inlagt 2014-05-22 |  | 
13.161861,55.705278,Folkparken - Parkering,Pris: 0.00 SEK - Inlagt 2015-06-17 |  | 
13.183861,55.680056,Lunds Södra Pendlarparkering - Rastplats,Pris: 0.00 SEK - Inlagt 2006-11-30 |  | Tankställe
12.916667,55.582222,Limhamns Småbåtshamn - Ställplats,Pris: 330.00 SEK - Inlagt 2025-05-07 | El Vatten Kassettömning Tömningsvagn WC Dusch WiFi | Nära vatten Badplats Båthamn Restaurang
12.997333,55.612,Skeppsbron - Parkering,Pris: 120.00 SEK - Inlagt 2015-07-28 |  | Centrumnära
12.913611,55.576389,Sibbarps Kallbadhus - Parkering,Pris: 49.00 SEK - Inlagt 2024-07-25 |  | Badplats
12.988889,55.618889,Kranplatsen - Parkering,Pris: 120.00 SEK - Inlagt 2012-12-06 |  | Nära vatten
12.996667,55.613056,Smörkontrollen - Parkering,Pris: Saknas |  | Centrumnära
13.0025,55.583889,Cronqvist Gata - Parkering,Pris: 60.00 SEK - Inlagt 2014-05-23 |  | Centrumnära
12.93552,55.55943,Skånegården - Rastplats,Pris: 0.00 SEK - Inlagt 2024-06-24 | Kassettömning WC HCP | 
12.933056,55.595833,Lagunen Limhamn - Ställplats,Pris: 300.00 SEK - Inlagt 2023-05-29 | El Vatten Kassettömning Markbrunn WC Dusch WiFi Sopor Tvättstuga | Badplats Båthamn Lugnt och Avskilt
14.249879,56.395317,Svarta Bergen - Parkering,Pris: 0.00 SEK - Inlagt 2013-05-11 | Vatten WC | Nära vatten Sevärdhet
14.03638,56.393414,Lars Dufwa - Rastplats,Pris: 0.00 SEK - Inlagt 2005-03-29 | Kassettömning WC HCP Sopor | Sevärdhet Tankställe
13.98417,56.368509,Spegeldammen - Ställplats,Pris: 0.00 SEK - Inlagt 2020-06-26 | Vatten WC HCP Sopor | Nära vatten Badplats Fiskeplats
13.3335,56.194556,Oderljunga Mölla - Ställplats,Pris: 50.00 SEK - Inlagt 2019-07-29 | WiFi | Naturnära
13.374167,56.251389,Bälinge Bad & Camping - Campingplats,Pris: 170.00 SEK - Inlagt 2021-02-23 | El Vatten Kassettömning Markbrunn WC HCP Dusch Sopor | Nära vatten Badplats Naturnära
14.201556,55.601333,Gyllebosjön - Parkering,Pris: 0.00 SEK - Inlagt 2020-02-10 |  | Badplats Lugnt och Avskilt
14.283627,55.474421,Strandgatan - Parkering,Pris: 0.00 SEK - Inlagt 2019-06-22 | WC | Båthamn
14.233064,55.683433,Bredrör Kungagraven - Ställplats,Pris: 0.00 SEK - Inlagt 2026-02-08 |  | Sevärdhet Lugnt och Avskilt
14.348488,55.560585,Badstigen - Parkering,Pris: Saknas |  | Centrumnära Badplats
14.315833,55.593611,Baskemölla Hamn - Parkering,Pris: 0.00 SEK - Inlagt 2018-09-16 |  | Nära vatten
14.2275,55.501111,Glimmingehus - Parkering,Pris: Saknas | WC | Sevärdhet
14.357222,55.5475,Simrislund - Parkering,Pris: 0.00 SEK - Inlagt 2014-11-20 |  | Lugnt och Avskilt
14.340278,55.534722,Simris - Rastplats,Pris: 0.00 SEK - Inlagt 2023-11-10 | WC HCP Sopor | 
14.33194,55.57887,Vårhallen - Rastplats,Pris: 0.00 SEK - Inlagt 2005-03-22 | WC HCP Sopor | Badplats
14.280866,55.61256,Österlens Golfklubb Djupadal - Ställplats,Pris: 350.00 SEK - Inlagt 2022-07-29 | El Vatten WC WiFi | Lugnt och Avskilt Golfbana
14.211389,55.466944,Borrby Bed and Breakfast - Ställplats,Pris: 200.00 SEK - Inlagt 2023-06-01 | El Vatten Kassettömning Markbrunn WC HCP WiFi Sopor | Lantgård
14.350083,55.5605,Simrishamns Småbåtshamn - Ställplats,Pris: 400.00 SEK - Inlagt 2024-05-23 | El Vatten Kassettömning WC Dusch Tvättstuga | Centrumnära Båthamn
13.664695,55.589577,Sövdesjön - Parkering,Pris: 0.00 SEK - Inlagt 2023-05-27 | Vatten WC Sopor | Badplats Fiskeplats
13.707177,55.567236,Destination Snogeholm - Campingplats,Pris: 270.00 SEK - Inlagt 2026-02-26 | El Vatten Kassettömning WC Dusch | Nära vatten Fiskeplats Lugnt och Avskilt Naturnära
13.716083,55.5655,Snogeholmssjön - Korttidsparkering,Pris: Saknas |  | Fiskeplats
13.62576,55.678828,Vombsjön - Parkering,Pris: Saknas | TC | Badplats Lugnt och Avskilt Naturnära
13.68884,55.560203,Raftarp - Korttidsparkering,Pris: 0.00 SEK - Inlagt 2008-05-26 | WC | Lugnt och Avskilt Naturnära
13.180222,56.033278,Klåverödsdammen - Korttidsparkering,Pris: Saknas | WC | Fiskeplats Naturnära
13.110389,56.023389,Finstorp Strövområde - Parkering,Pris: 0.00 SEK - Inlagt 2022-05-27 | WC HCP | Fiskeplats Naturnära
13.289389,56.003167,Röstånga - Ställplats,Pris: 250.00 SEK - Inlagt 2025-08-26 | Vatten WC | Centrumnära
13.211786,55.567514,Torup Slott - Parkering,Pris: Saknas | Vatten WC Dusch Sopor | Sevärdhet
13.309194,55.51169,Börringe - Rastplats,Pris: 0.00 SEK - Inlagt 2005-12-04 | WC HCP Sopor | 
14.094031,55.743281,Brösarps Norra Backar - Parkering,Pris: Saknas | WC | Lugnt och Avskilt Naturnära
14.131149,55.719535,Brösarps Backar - Rastplats,Pris: 0.00 SEK - Inlagt 2019-06-23 | Kassettömning WC HCP Sopor | 
14.1125,55.734444,Piraten - Rastplats,Pris: 0.00 SEK - Inlagt 2007-04-11 | Vatten Kassettömning WC HCP Sopor | 
13.940108,55.560602,Nostalgia Café the 50s - Ställplats,Pris: 170.00 SEK - Inlagt 2024-08-30 | El Vatten Kassettömning Markbrunn WC Dusch Sopor | Sevärdhet Lugnt och Avskilt
13.389167,55.349722,Smyge Strandväg - Friplats,Pris: 0.00 SEK - Inlagt 2006-12-08 |  | Nära vatten Badplats
13.215075,55.3625,Dalabadet - Korttidsparkering,Pris: Saknas | WC | Badplats Vid Campingplats
12.935389,55.411194,Falsterbokanalens Båtklubb Östra Hamnplan - Ställplats,Pris: 300.00 SEK - Inlagt 2024-06-18 | El Vatten Kassettömning WC HCP Dusch Sopor | Nära vatten Båthamn
13.099167,55.517222,Arriesjön - Korttidsparkering,Pris: 0.00 SEK - Inlagt 2023-07-25 | WC HCP Sopor | Badplats Fiskeplats
12.952222,55.428056,Foteviken - Korttidsparkering,Pris: 0.00 SEK - Inlagt 2023-09-20 |  | Badplats Sevärdhet Lugnt och Avskilt
12.831667,55.416389,Skanörs Hamn - Ställplats,Pris: 200.00 SEK - Inlagt 2024-08-29 | El Vatten Kassettömning Markbrunn WC Dusch Sopor | Nära vatten Centrumnära Badplats Båthamn Restaurang Naturreservat
12.94325,55.398667,Västra Kanalvägen - Parkering,Pris: 250.00 SEK - Inlagt 2019-04-25 | Sopor | Badplats
12.945861,55.399083,Östra Kanalvägen - Parkering,Pris: 250.00 SEK - Inlagt 2018-08-25 | WC Sopor | Nära vatten
13.757333,55.452167,Bjäresjö - Rastplats,Pris: 0.00 SEK - Inlagt 2005-03-29 | WC HCP Sopor | 
13.7873,55.4248,Västerleden - Ställplats,Pris: 100.00 SEK - Inlagt 2023-07-10 | TC Sopor | Nära vatten Badplats
13.81273,55.426528,Ystads Marina - Ställplats,Pris: 200.00 SEK - Inlagt 2024-10-10 | El Vatten Kassettömning WC Dusch Sopor | Badplats Båthamn Restaurang
14.062863,55.388899,Ställplats Kåseberga - Ställplats,Pris: 230.00 SEK - Inlagt 2026-02-08 | El Vatten Kassettömning WC Dusch Sopor | Sevärdhet
12.836075,56.254635,Råbockavägen - Ställplats,Pris: 150.00 SEK - Inlagt 2021-06-04 |  | Badplats
12.763713,56.315816,Vejbystrands Hamn - Ställplats,Pris: 250.00 SEK - Inlagt 2025-06-01 | El Vatten Kassettömning WC Dusch Sopor | Badplats Båthamn
12.838704,56.264387,Klitterhus - Ställplats,Pris: 150.00 SEK - Inlagt 2021-06-04 | WC | Nära vatten Badplats
12.855951,56.194832,Erikslund - Rastplats,Pris: 0.00 SEK - Inlagt 2005-03-20 | Kassettömning WC HCP Sopor | Tankställe
12.939034,56.392382,Hallandsåsen - Rastplats,Pris: 0.00 SEK - Inlagt 2005-12-02 | Kassettömning WC HCP Sopor | 
12.860556,56.249722,Arbingatan - Ställplats,Pris: 150.00 SEK - Inlagt 2024-08-19 | Sopor | Centrumnära
12.958056,56.346389,Tiarp - Ställplats,Pris: 100.00 SEK - Inlagt 2016-07-26 | El Vatten | Lugnt och Avskilt
12.842842,56.267876,Ängelholms Föreningshamn - Ställplats,Pris: 230.00 SEK - Inlagt 2026-02-08 | El Vatten Kassettömning Markbrunn WC HCP Dusch Sopor | Badplats Båthamn Restaurang
12.842159,56.269233,Ängelholms Föreningshamn (v) - Ställplats,Pris: 185.00 SEK - Inlagt 2021-02-23 | El Vatten WC HCP Dusch Sopor | Båthamn
13.386989,56.308668,Vanåsvägen - Parkering,Pris: 0.00 SEK - Inlagt 2016-05-08 |  | 
13.33875,56.283694,Skåneporten Örkelljunga - Rastplats,Pris: 0.00 SEK - Inlagt 2020-07-01 | Vatten Kassettömning WC HCP Sopor | Restaurang Tankställe Husbilstillbehör
13.33921,56.28602,Bengt i Örkelljunga - Ställplats,Pris: 50.00 SEK - Inlagt 2022-05-07 | El Vatten Kassettömning Markbrunn | Tankställe Husbilstillbehör Vid Rastplats
13.152865,56.262373,Persköps Ställplats - Ställplats,Pris: 250.00 SEK - Inlagt 2025-04-14 | El Vatten Kassettömning Markbrunn WC HCP Dusch Sopor | Badplats Lugnt och Avskilt Naturnära
14.033611,56.254722,Tydingesjön Camping och Festplats - Ställplats,Pris: 150.00 SEK - Inlagt 2019-12-13 | Vatten Kassettömning Markbrunn WC | Vid Campingplats
17.882724,59.163394,Lida Friluftsgård - Parkering,Pris: 0.00 SEK - Inlagt 2024-07-26 |  | Badplats Restaurang
17.529805,59.363391,Adelsövallen - Parkering,Pris: 0.00 SEK - Inlagt 2020-07-24 |  | Nära vatten Sevärdhet
17.804444,59.268611,Lundhagsbadet - Parkering,Pris: Saknas |  | Badplats
17.781389,59.268333,Södran - Korttidsparkering,Pris: Saknas |  | Badplats
17.655,59.429444,Eldgarnsö Naturreservat - Parkering,Pris: 0.00 SEK - Inlagt 2018-12-12 |  | Naturreservat
18.146631,59.183542,Vegabaren Söderby - Parkering,Pris: Saknas |  | Restaurang
18.817556,60.101028,Grisslehamn - Parkering,Pris: 150.00 SEK - Inlagt 2023-08-20 |  | Centrumnära
18.678389,59.758028,Lommar Badet - Parkering,Pris: 0.00 SEK - Inlagt 2020-01-09 | WC | Badplats Fiskeplats
18.728583,59.754056,Borgmästarholmen - Parkering,Pris: Saknas |  | Nära vatten
17.310278,59.244444,Taxinge Slott - Parkering,Pris: 0.00 SEK - Inlagt 2013-12-01 | Vatten WC Sopor | Badplats
17.926806,58.876917,Lövhagens Kaffeservering och Vandrarhem - Ställplats,Pris: 250.00 SEK - Inlagt 2021-10-29 | El Vatten WC Dusch Sopor | Nära vatten Badplats Vandrarhem
18.032,59.320222,Långholmens Husbilscamping - Ställplats,Pris: 460.00 SEK - Inlagt 2025-09-07 | El Vatten Kassettömning Markbrunn WC Dusch Sopor | Nära vatten Centrumnära
18.097694,59.283472,Kyrkogårdsvägen Enskede - Parkering,Pris: Saknas |  | 
18.128056,59.333889,Kaknästornet - Parkering,Pris: 210.00 SEK - Inlagt 2015-01-01 |  | 
17.806972,59.372472,Berghamns Brygga - Parkering,Pris: Saknas |  | Nära vatten Badplats
18.070834,59.304132,Årstaviken - Parkering,Pris: 60.00 SEK - Inlagt 2019-11-14 |  | Nära vatten
18.05292,59.312513,Tantolunden - Ställplats,Pris: 420.00 SEK - Inlagt 2023-11-04 | El Vatten Kassettömning Markbrunn WC Dusch | Centrumnära
18.161667,59.249444,Ställplats Stockholm - Ställplats,Pris: 295.00 SEK - Inlagt 2025-03-08 | El Vatten Kassettömning Markbrunn WC Dusch Sopor | Nära vatten Badplats Lugnt och Avskilt Naturreservat
17.958528,59.307639,Klubbensborg - Campingplats,Pris: 415.00 SEK - Inlagt 2025-06-02 | El Vatten Sopor | Nära vatten Båthamn Vandrarhem
17.69425,59.052667,Skanssundet - Parkering,Pris: Saknas | TC | Nära vatten Badplats
17.599333,59.082056,Saltå Kvarn - Parkering,Pris: Saknas |  | 
17.631111,59.189167,Södertälje Gästhamn - Ställplats,Pris: 180.00 SEK - Inlagt 2019-06-08 | Vatten Kassettömning WC Dusch Sopor Tvättstuga | Båthamn
18.299527,59.236882,Tyresö Slott - Korttidsparkering,Pris: 25.00 SEK - Inlagt 2020-05-12 |  | Sevärdhet
17.897909,59.549881,Stora Väsby - Rastplats,Pris: 0.00 SEK - Inlagt 2007-01-23 | WC HCP Sopor | Restaurang Tankställe
17.964444,59.534167,Wäsby Golf - Ställplats,Pris: 200.00 SEK - Inlagt 2016-08-10 | El Vatten WC Dusch | Golfbana
18.333306,59.634889,Roslagsstoppet - Parkering,Pris: 0.00 SEK - Inlagt 2006-03-11 |  | Tankställe
18.2825,59.393194,Bogesunds Slott - Parkering,Pris: Saknas |  | Sevärdhet
18.669507,59.291166,Djuröbron - Parkering,Pris: Saknas |  | Nära vatten
18.293194,59.477278,Åkersberga Småbåtshamn - Parkering,Pris: 0.00 SEK - Inlagt 2023-10-16 | Sopor | Nära vatten Båthamn
16.488333,59.341111,Skjulsta Fritidsområde - Parkering,Pris: 0.00 SEK - Inlagt 2019-10-16 | WC | Nära vatten Badplats
16.511389,59.374722,Strömsholmen - Ställplats,Pris: 100.00 SEK - Inlagt 2022-03-06 |  | Nära vatten Centrumnära
16.302778,59.403889,Råbyhed - Rastplats,Pris: 0.00 SEK - Inlagt 2019-06-20 | Kassettömning WC HCP Sopor | 
16.625823,59.446331,Sundbyholms Gästhamn - Ställplats,Pris: 250.00 SEK - Inlagt 2025-06-24 | El Vatten Kassettömning WC Dusch Sopor | Nära vatten Sevärdhet Båthamn
16.472778,59.428056,Torshälla Hamn - Ställplats,Pris: 180.00 SEK - Inlagt 2021-07-13 | El Vatten Kassettömning WC Dusch Sopor | Nära vatten Båthamn
16.536111,59.038028,Stenhammars skans - Rastplats,Pris: 0.00 SEK - Inlagt 2005-12-29 | WC HCP Sopor | Nära vatten
16.477778,59.145,Risinge - Ställplats,Pris: Saknas | El Vatten Kassettömning Markbrunn WC Dusch Sopor | Badplats
16.493331,59.03939,Gnallen - Rastplats,Pris: 0.00 SEK - Inlagt 2005-12-29 | WC HCP Sopor | 
16.131068,59.138267,Aspen - Rastplats,Pris: 0.00 SEK - Inlagt 2005-12-29 | WC HCP Sopor | Nära vatten
16.197778,58.967222,Djulö Kvarn - Rastplats,Pris: 0.00 SEK - Inlagt 2006-11-28 | WC HCP Sopor | Nära vatten
17.02567,58.764987,Hjortensbergsbadet - Parkering,Pris: 100.00 SEK - Inlagt 2008-07-16 | WC Dusch | Centrumnära Badanläggning
17.000694,58.749111,Järnvägsgatan - Parkering,Pris: 24.00 SEK - Inlagt 2019-04-17 |  | Centrumnära
17.000083,58.745028,Idbäcksvägen - Parkering,Pris: 0.00 SEK |  | 
16.410417,58.729778,Stavsjö Trafikplats - Parkering,Pris: 0.00 SEK - Inlagt 2005-03-20 | WC Sopor | Restaurang Tankställe
17.36719,58.917578,Sillekrog - Rastplats,Pris: 0.00 SEK - Inlagt 2005-03-20 | WC Dusch Sopor | Restaurang Tankställe
16.920171,58.749966,Nyköpingsbro - Rastplats,Pris: 0.00 SEK - Inlagt 2005-03-20 | WC HCP Sopor | Tankställe
17.015333,58.744625,Spelhagsvägen - Ställplats,Pris: 100.00 SEK - Inlagt 2024-01-19 | El Vatten Kassettömning Sopor | Centrumnära Båthamn
17.159872,58.950819,Öster Malma - Parkering,Pris: 50.00 SEK - Inlagt 2017-05-06 | El Vatten WC | Restaurang
17.410474,58.796436,Sandviks Camping - Campingplats,Pris: 100.00 SEK - Inlagt 2021-02-20 | El Kassettömning WC Dusch Sopor Tvättstuga | Nära vatten Badplats Fiskeplats
17.112139,58.658611,Femöre Gästhamn - Ställplats,Pris: 200.00 SEK - Inlagt 2025-08-13 | El Vatten Kassettömning WC HCP Dusch Sopor | Nära vatten Båthamn Restaurang
17.100083,58.664028,Badhusviken - Parkering,Pris: 0.00 SEK - Inlagt 2025-06-03 | WC HCP Sopor | Båthamn
17.107661,58.6532,Femörefortet - Parkering,Pris: 0.00 SEK - Inlagt 2025-08-12 |  | Sevärdhet
17.017389,59.401194,Strängnäsbron - Rastplats,Pris: 0.00 SEK - Inlagt 2015-12-29 | Kassettömning WC HCP Sopor | 
17.025833,59.378611,Strängnäs Småbåtshamn - Ställplats,Pris: 300.00 SEK - Inlagt 2025-08-26 | El Vatten Kassettömning WC HCP Dusch Sopor Tvättstuga | Centrumnära Båthamn
17.552778,58.890929,Trosa Hamn - Ställplats,Pris: 374.00 SEK - Inlagt 2023-08-04 | El Vatten Kassettömning WC Dusch WiFi Tvättstuga | Nära vatten Centrumnära Båthamn Restaurang
17.549167,58.905278,Nyängsvägen - Parkering,Pris: 0.00 SEK - Inlagt 2013-07-30 | TC | 
17.555278,58.890556,Östra Hamnplan Trosa - Ställplats,Pris: 374.00 SEK - Inlagt 2024-06-21 | Vatten Kassettömning Markbrunn WC Dusch Sopor | Nära vatten Centrumnära Båthamn
15.87384,59.049,Åbrogården - Parkering,Pris: 0.00 SEK - Inlagt 2021-11-04 |  | Centrumnära Restaurang Tankställe
15.921944,59.071944,Båsenbergabacken - Ställplats,Pris: 190.00 SEK - Inlagt 2021-10-24 | El Kassettömning Markbrunn WC Dusch Sopor | Lugnt och Avskilt Golfbana Vintersportanläggning
17.273889,59.745278,Uvbergets Naturreservat - Parkering,Pris: 0.00 SEK - Inlagt 2025-09-10 | WC HCP Sopor | Badplats Naturreservat
17.076667,59.631389,Hamngatan - Ställplats,Pris: 100.00 SEK - Inlagt 2025-04-28 | El WC Dusch Sopor Tvättstuga | Nära vatten Centrumnära Fiskeplats
16.876931,59.637802,Frösvi - Rastplats,Pris: 0.00 SEK - Inlagt 2016-04-19 | Kassettömning WC HCP Sopor | 
16.956944,60.0275,Jan Ersgården B and B - Ställplats,Pris: 100.00 SEK - Inlagt 2019-11-21 | El Vatten Dusch | Lantgård
16.944333,60.152417,Tärnsjö Rastplats - Rastplats,Pris: 0.00 SEK - Inlagt 2019-07-30 | Vatten Kassettömning WC HCP Sopor | Tankställe
17.622222,59.705556,Skokloster - Parkering,Pris: 230.00 SEK - Inlagt 2026-03-21 | El Vatten WC | Nära vatten Sevärdhet Restaurang
17.520194,59.558806,Åbergs Museum - Parkering,Pris: Saknas |  | Sevärdhet
17.391611,59.621056,Ekolskrog - Rastplats,Pris: 130.00 SEK - Inlagt 2023-09-02 | WC HCP Sopor | Nära vatten
17.774701,59.792332,Mora Stenar - Rastplats,Pris: 0.00 SEK - Inlagt 2020-05-10 | Kassettömning WC Sopor | 
17.71,60.502222,Ledskär - Parkering,Pris: Saknas |  | Naturnära
17.879444,60.411389,Barnens Bruk Lövstabruk - Parkering,Pris: 0.00 SEK - Inlagt 2012-06-24 |  | Sevärdhet
17.744722,60.543889,Fagerviken Hamn - Parkering,Pris: 100.00 SEK - Inlagt 2024-08-30 |  | Lugnt och Avskilt
18.011111,60.508333,Gudinge Hamn - Ställplats,Pris: 200.00 SEK - Inlagt 2020-05-21 | El WC Sopor | Nära vatten
17.631389,59.785278,Skarholmen - Parkering,Pris: Saknas |  | Nära vatten Badplats
17.576944,59.764444,Hammarskogs Friluftsområde - Parkering,Pris: 0.00 SEK - Inlagt 2015-12-09 |  | Naturnära
17.643333,59.853611,Tullhuset - Parkering,Pris: 140.00 SEK - Inlagt 2021-02-07 |  | Nära vatten Centrumnära
17.637862,59.990562,Tre Ängar - Rastplats,Pris: 0.00 SEK - Inlagt 2009-12-08 | Kassettömning WC HCP Sopor | Vågstation
17.645833,59.970556,Torsberget - Rastplats,Pris: 0.00 SEK - Inlagt 2009-12-08 | Kassettömning WC HCP Sopor | 
17.437778,60.565278,Älvkarleby Turist och Konferenshotell - Parkering,Pris: 100.00 SEK - Inlagt 2021-08-07 | El | Fiskeplats
17.445967,60.603525,Dalälvsbron - Rastplats,Pris: 0.00 SEK - Inlagt 2005-12-28 | WC Sopor | 
18.377721,60.260444,Prästgatan - Ställplats,Pris: 120.00 SEK - Inlagt 2021-02-05 | WC | Nära vatten Centrumnära
18.441811,60.340859,Västerhamn - Ställplats,Pris: 495.00 SEK - Inlagt 2025-07-04 | WC WiFi | Nära vatten Centrumnära Badplats
18.436111,60.339722,Västerhamn - Ställplats,Pris: 495.00 SEK - Inlagt 2025-07-30 | WC HCP | Nära vatten Centrumnära
18.258611,60.345278,Kallerö - Friplats,Pris: 0.00 SEK - Inlagt 2020-08-06 | TC Sopor | Nära vatten Fiskeplats Lugnt och Avskilt Naturnära Naturreservat
18.438889,60.337778,Kustlaboratoriet - Parkering,Pris: Saknas |  | Centrumnära
12.591944,59.652222,Arvika Hamn - Parkering,Pris: 0.00 SEK - Inlagt 2023-05-23 |  | Nära vatten Centrumnära
